$GPHDT,143.93,T*09
$GPGGA,214540.00,4716.79378,N,12224.01536,W,2,10,0.8,3.2,M,-18.7,M,7.0,0131*7A
!AIVDM,1,1,,B,ENkb9Ta8:SRb@9WbW2@:9V@9Sh@;Wdo;=`e>800003vP000,2*31
!AIVDM,1,1,,A,15Mi>JP000G?S3PK2QAh0rs@0<0b,0*74
$GPRMC,214540.00,A,4716.79378,N,12224.01536,W,0.06,356.11,250819,15.2,E,D*13
!AIVDM,1,1,,B,35NBpm0PASo?GwfK5iP;vb7@21rP,0*78
!AIVDM,1,1,,A,ENkb9MI8:SRb@9WbW2@:9V@:0h@;Wma9=Tjvh00003vP000,2*45
!AIVDM,1,1,,A,403Owpiv><me`o=shpK=Bfg020S:,0*7B
!AIVDM,1,1,,B,403Owpiv><me`o=shpK=Bfg020S:,0*78
!AIVDM,1,1,,A,403OwpAv><me`o?l2lK7Hv?028Gv,0*10
!AIVDM,1,1,,A,403OwpQv><me`G?:GDK4LLg02D1o,0*55
!AIVDM,1,1,,B,403OwpAv><me`o?l2lK7Hv?028H0,0*5A
!AIVDM,1,1,,B,403OwpQv><me`G?:GDK4LLg02D1o,0*56
!AIVDM,1,1,,A,403Ovjiv><me`o?upvK>grw02<4w,0*7E
$GPHDT,143.94,T*0E
!AIVDM,1,1,,B,15O1II8P00G?RwFK2<F=tgw@2D0E,0*35
$GPGGA,214541.00,4716.79378,N,12224.01536,W,2,10,0.8,3.2,M,-18.7,M,4.0,0131*78
!AIVDM,1,1,,B,15NHVu`P0BG?BUDK3s<DpwwD08H:,0*50
$GPRMC,214541.00,A,4716.79378,N,12224.01536,W,0.01,25.34,250819,15.2,E,D*25
!AIVDM,1,1,,B,ENkb9Ta8:SRb@9WbW2@:9V@9Sh@;Wdo;=`e>800003vP000,2*31
!AIVDM,1,1,,A,35MvOV0000o?S;bK2jtu;TqB20rh,0*0E
!AIVDM,1,1,,A,D03OwphgqN>4eHffpfpNfp0,2*32
!AIVDM,1,1,,A,D03Owp@hMN>4eTffpfpNfp0,2*35
!AIVDM,1,1,,B,D03OwpPhMN>4elfGLfpNfp0,2*03
!AIVDM,1,1,,B,D03OwphuqN>4e8ffpfpNfp0,2*53
!AIVDM,1,1,,A,D03OwpPvMN>4eDfGLfpNfp0,2*36
!AIVDM,1,1,,B,D03Owp@vMN>4eDffpfpNfp0,2*38
!AIVDM,1,1,,A,15MiRi0P01G?S1tK2QALMwwF0<0f,0*46
$GPHDT,143.95,T*0F
!AIVDM,1,1,,B,14QjLb0029o?aK2K?viCwS?B0hHa,0*76
$GPGGA,214542.00,4716.79378,N,12224.01536,W,2,10,0.8,3.2,M,-18.7,M,5.0,0131*7A
!AIVDM,1,1,,B,15Mv<C000To?dJVK3J5TJkAD0D0s,0*69
!AIVDM,1,1,,A,403Ot`1v><mebo=se6K=Bd?02@Hj,0*18
$GPGNS,214542.00,4716.79378,N,12224.01536,W,D,10,0.8,3.2,-18.7,5.0,0131*17
!AIVDM,1,1,,A,15NL:U501bo?;J2K4cM050;F0@Hl,0*47
$GPZDA,214542.00,25,08,2019,00,00*67
$GPRMC,214542.00,A,4716.79378,N,12224.01536,W,0.13,323.08,250819,15.2,E,D*1F
$GPGSA,M,3,08,10,13,15,16,20,21,26,27,29,,,1.3,0.8,1.0*36
!AIVDM,1,1,,A,15MlHcP000G?b02K3@I;=D?F2<0Q,0*75
$GPHDT,144.02,T*06
$GPGGA,214543.00,4716.79378,N,12224.01535,W,2,10,0.8,3.2,M,-18.7,M,6.0,0131*7B
$GPRMC,214543.00,A,4716.79378,N,12224.01535,W,0.08,253.35,250819,15.2,E,D*1F
!AIVDM,1,1,,A,15MvdQP00TG?dW<K3IgTCq3H0@I`,0*4D
!AIVDM,1,1,,A,35NBpm0PATo?GtbK5id;sr3F20w0,0*3C
!AIVDM,1,1,,A,?03Owpi@`LSPD00,2*12
$GPHDT,144.00,T*04
$GPGGA,214544.00,4716.79378,N,12224.01535,W,2,10,0.8,3.2,M,-18.7,M,7.0,0131*7D
!AIVDM,1,1,,B,ENkb9MI8:SRb@9WbW2@:9V@:0h@;Wma9=Tjvh00003vP000,2*46
$GPRMC,214544.00,A,4716.79378,N,12224.01535,W,0.05,341.01,250819,15.2,E,D*10
!AIVDM,1,1,,A,ENkb9Ta8:SRb@9WbW2@:9V@9Sh@;Wdo;=`e>800003vP000,2*32
!AIVDM,2,1,6,B,55MvdQP1g`viL93;GWLhDh60`uT000000000000O0hD445Jk0050@kk@@000,0*77
!AIVDM,2,2,6,B,00000000000,2*21
$GPHDT,144.07,T*03
!AIVDM,1,1,,B,35MvOV0000o?S;bK2jtu2TqH20n1,0*4B
$GPGGA,214545.00,4716.79378,N,12224.01535,W,2,10,0.8,3.2,M,-18.7,M,7.0,0131*7C
!AIVDM,1,1,,A,H52QRMA8uT4j0<PTpttd0000000,2*0F
$GPRMC,214545.00,A,4716.79378,N,12224.01535,W,0.09,225.45,250819,15.2,E,D*1E
!AIVDM,1,1,,B,ENkb9MI8:SRb@9WbW2@:9V@:0h@;Wma9=Tjvh00003vP000,2*46
$GPHDT,144.09,T*0D
$GPGGA,214546.00,4716.79378,N,12224.01536,W,2,10,0.8,3.2,M,-18.7,M,7.0,0131*7C
$GPRMC,214546.00,A,4716.79378,N,12224.01536,W,0.12,219.87,250819,15.2,E,D*15
$GPHDT,144.06,T*02
!AIVDM,1,1,,B,H52b?W@5E8u8400000000000000,2*13
$GPGGA,214547.00,4716.79377,N,12224.01537,W,2,10,0.8,3.3,M,-18.7,M,4.0,0131*71
!AIVDM,1,1,,B,H52b?WDTFC@0DBw00000001H1210,0*3F
!AIVDM,1,1,,B,15NBpm0PATo?GpLK5itsqr1N2<0W,0*6B
!AIVDM,1,1,,A,H52QRMDU71B=9>000000001@:330,0*33
$GPGNS,214547.00,4716.79377,N,12224.01537,W,D,10,0.8,3.3,-18.7,4.0,0131*1C
$GPZDA,214547.00,25,08,2019,00,00*62
$GPRMC,214547.00,A,4716.79377,N,12224.01537,W,0.03,199.07,250819,15.2,E,D*19
!AIVDM,1,1,,A,35MvOV0000o?S;bK2jtu;TqN2000,0*18
$GPGSA,M,3,08,10,13,15,16,20,21,26,27,29,,,1.3,0.8,1.0*36
!AIVDM,1,1,,A,34QjLb0Oj9o?aUFK?vT43CCN0QSh,0*7F
$GPHDT,144.06,T*02
$GPGGA,214548.00,4716.79378,N,12224.01536,W,2,10,0.8,3.3,M,-18.7,M,5.0,0131*71
!AIVDM,1,1,,A,35N6Cc5P00o>oIfK5QwN4?wP2D<b,0*1E
!AIVDM,1,1,,B,ENkb9Ta8:SRb@9WbW2@:9V@9Sh@;Wdo;=`e>800003vP000,2*31
!AIVDM,1,1,,A,35NH9j5P@1G>pVDK5JoeogwQP000,0*0A
$GPRMC,214548.00,A,4716.79378,N,12224.01536,W,0.10,332.75,250819,15.2,E,D*1C
!AIVDM,1,1,,A,ENkb9MI8:SRb@9WbW2@:9V@:0h@;Wma9=Tjvh00003vP000,2*45
$GPHDT,144.11,T*04
$GPGGA,214549.00,4716.79378,N,12224.01536,W,2,10,0.8,3.3,M,-18.7,M,6.0,0131*73
$GPRMC,214549.00,A,4716.79378,N,12224.01536,W,0.07,307.05,250819,15.2,E,D*1A
!AIVDM,1,1,,A,15NHVu`P0BG?BVVK3s6TngwT2<1K,0*48
!AIVDM,1,1,,B,ENkb9Ta8:SRb@9WbW2@:9V@9Sh@;Wdo;=`e>800003vP000,2*31
!AIVDM,1,1,,B,B52b?W@005ku2d6hiUB7SwpUCP06,0*54
!AIVDM,1,1,,A,?03OwpiGhiW@D00,2*2C
!AIVDM,1,1,,B,?03OwpiGO>UPD00,2*4D
$GPHDT,144.16,T*03
!AIVDM,1,1,,A,?03OwpAGV2LPD00,2*6A
$GPGGA,214550.00,4716.79377,N,12224.01537,W,2,10,0.8,3.3,M,-18.7,M,7.0,0131*74
$GPRMC,214550.00,A,4716.79377,N,12224.01537,W,0.11,347.38,250819,15.2,E,D*11
!AIVDM,1,1,,A,35NBpm0PATo?GmBK5j8coIuT21r0,0*75
!AIVDM,1,1,,B,H52P6K@8D580000000000000000,2*74
!AIVDM,1,1,,B,35MvOV0000o?S;bK2jtuBDqT20v0,0*2E
$GPHDT,144.15,T*00
!AIVDM,1,1,,B,15Mi>JP000G?S3LK2QB@=:sV0D0b,0*6B
$GPGGA,214551.00,4716.79378,N,12224.01537,W,2,10,0.8,3.3,M,-18.7,M,7.0,0131*7A
!AIVDM,1,1,,A,15Mv<C000To?dNNK3Iv4BSCV0HN1,0*46
$GPRMC,214551.00,A,4716.79378,N,12224.01537,W,0.06,180.44,250819,15.2,E,D*1B
!AIVDM,1,1,,A,15O1II8P00G?RwBK2<EutgwV28N8,0*10
!AIVDM,1,1,,B,15MlHcP000G?b0DK3@IK?4A`20Rk,0*0E
$GPHDT,144.18,T*0D
!AIVDM,1,1,,B,H52PEiDUCD=5hh300000000p=330,0*46
$GPGGA,214552.00,4716.79378,N,12224.01536,W,2,10,0.8,3.3,M,-18.7,M,7.0,0131*78
!AIVDM,1,1,,B,403Ot`1v><melo=seLK=BdO02@Na,0*12
!AIVDM,1,1,,B,ENkb9MI8:SRb@9WbW2@:9V@:0h@;Wma9=Tjvh00003vP000,2*46
$GPGNS,214552.00,4716.79378,N,12224.01536,W,D,10,0.8,3.3,-18.7,7.0,0131*15
!AIVDM,1,1,,B,15MiRi0P00G?S1hK2QBdVOwb0L0f,0*04
$GPZDA,214552.00,25,08,2019,00,00*66
!AIVDM,1,1,,A,B5O262P005krvfVhp2O2GwrUWP06,0*53
$GPRMC,214552.00,A,4716.79378,N,12224.01536,W,0.08,186.53,250819,15.2,E,D*17
!AIVDM,1,1,,B,B52PEi@09ukfBS6iBb9i7wr5oP06,0*2D
$GPGSA,M,3,08,10,13,15,16,20,21,26,27,29,,,1.3,0.8,1.0*36
!AIVDM,1,1,,A,ENkb9Ta8:SRb@9WbW2@:9V@9Sh@;Wdo;=`e>800003vP000,2*32
!AIVDM,1,1,,B,15NL:U501bo?;JTK4dV@6P;b0D0t,0*6D
$GPHDT,144.24,T*02
!AIVDM,1,1,,B,15MvdQP00TG?dc4K3IWlB93b06bl,0*48
$GPGGA,214553.00,4716.79377,N,12224.01536,W,2,10,0.8,3.3,M,-18.7,M,4.0,0131*75
$GPRMC,214553.00,A,4716.79377,N,12224.01536,W,0.07,78.05,250819,15.2,E,D*25
!AIVDM,1,1,,B,ENkb9MI8:SRb@9WbW2@:9V@:0h@;Wma9=Tjvh00003vP000,2*46
!AIVDM,1,1,,B,35NBpm0PATo?Gj6K5jD;mqsb210h,0*31
$GPHDT,144.38,T*0F
$GPGGA,214554.00,4716.79377,N,12224.01537,W,2,10,0.8,3.3,M,-18.7,M,5.0,0131*72
$GPRMC,214554.00,A,4716.79377,N,12224.01537,W,0.02,218.66,250819,15.2,E,D*17
$GPHDT,144.44,T*04
!AIVDM,1,1,,A,35MvOV0000o?S;bK2jtu<Tqd20qA,0*05
$GPGGA,214555.00,4716.79378,N,12224.01536,W,2,10,0.8,3.3,M,-18.7,M,6.0,0131*7E
$GPRMC,214555.00,A,4716.79378,N,12224.01536,W,0.19,176.45,250819,15.2,E,D*18
!AIVDM,1,1,,A,?03OwpiGTRQ8D00,2*55
!AIVDM,1,1,,A,?03Owpi@`Ej<D00,2*4E
$GPHDT,144.35,T*02
$GPGGA,214556.00,4716.79377,N,12224.01535,W,2,10,0.8,3.3,M,-18.7,M,7.0,0131*70
!AIVDM,1,1,,B,ENkb9Ta8:SRb@9WbW2@:9V@9Sh@;Wdo;=`e>800003vP000,2*31
$GPRMC,214556.00,A,4716.79377,N,12224.01535,W,0.19,269.95,250819,15.2,E,D*17
!AIVDM,1,1,,A,15NBpm0PATo?GfnK5jO;j9oh2HQ;,0*7D
!AIVDM,1,1,,A,ENkb9MI8:SRb@9WbW2@:9V@:0h@;Wma9=Tjvh00003vP000,2*45
$GPHDT,144.33,T*04
$GPGGA,214557.00,4716.79377,N,12224.01538,W,2,10,0.8,3.3,M,-18.7,M,7.0,0131*7C
$GPGNS,214557.00,4716.79377,N,12224.01538,W,D,10,0.8,3.3,-18.7,7.0,0131*11
!AIVDM,1,1,,B,ENkb9Ta8:SRb@9WbW2@:9V@9Sh@;Wdo;=`e>800003vP000,2*31
$GPZDA,214557.00,25,08,2019,00,00*63
!AIVDM,1,1,,B,35MvOV0000o?S;bK2jtu:Dqj2000,0*2E
$GPRMC,214557.00,A,4716.79377,N,12224.01538,W,0.17,344.99,250819,15.2,E,D*17
$GPGSA,M,3,08,10,13,15,16,20,21,26,27,29,,,1.3,0.8,1.0*36
$GPHDT,144.36,T*01
!AIVDM,1,1,,B,15NcIU?000G?v80K?@AL;Bel0@R4,0*46
$GPGGA,214558.00,4716.79378,N,12224.01537,W,2,10,0.8,3.3,M,-18.7,M,7.0,0131*73
$GPRMC,214558.00,A,4716.79378,N,12224.01537,W,0.02,233.13,250819,15.2,E,D*1F
!AIVDM,1,1,,A,B52b:rh0;5kn;D6iE:9Sowu5CP06,0*62
!AIVDM,1,1,,A,B5MtTD001ukmsvVhoV62Swu5oP06,0*61
$GPHDT,144.41,T*01
$GPGGA,214559.00,4716.79378,N,12224.01537,W,2,10,0.8,3.3,M,-18.7,M,4.0,0131*71
$GPRMC,214559.00,A,4716.79378,N,12224.01537,W,0.11,25.97,250819,15.2,E,D*25
!AIVDM,1,1,,A,B5NfCNP005kpal6hVsSJFWuUCP06,0*41
!AIVDM,1,1,,A,403Ot`Qv><meso@7;:K?ffO02<6g,0*59
$GPHDT,144.47,T*07
!AIVDM,1,1,,A,ENkb9MI8:SRb@9WbW2@:9V@:0h@;Wma9=Tjvh00003vP000,2*45
$GPGGA,214600.00,4716.79378,N,12224.01537,W,2,10,0.8,3.3,M,-18.7,M,5.0,0131*7F
!AIVDM,1,1,,B,ENkb9MI8:SRb@9WbW2@:9V@:0h@;Wma9=Tjvh00003vP000,2*46
$GPRMC,214600.00,A,4716.79378,N,12224.01537,W,0.12,226.77,250819,15.2,E,D*16
!AIVDM,1,1,,B,35NBpm0PATo?GbHK5jeKgqj021t@,0*3B
!AIVDM,1,1,,B,15NHVu`P0BG?B`JK3rmTcOv22L1K,0*09
!AIVDM,1,1,,A,ENkb9Ta8:SRb@9WbW2@:9V@9Sh@;Wdo;=`e>800003vP000,2*32
!AIVDM,1,1,,A,403Owpiv><mf0o=sh@K=BdO02L<C,0*58
!AIVDM,1,1,,B,403Owpiv><mf0o=sh@K=BdO02L<C,0*5B
!AIVDM,1,1,,B,?03Owpi;EwI@D00,2*7E
!AIVDM,1,1,,A,403OwpAv><mf0o?l2dK7I0g026bp,0*79
!AIVDM,1,1,,A,403OwpQv><mf0o?:IBK4L=g02@0T,0*69
!AIVDM,1,1,,B,403OwpAv><mf0o?l2dK7I0g026bp,0*7A
!AIVDM,1,1,,B,403OwpQv><mf0o?:IBK4L=g02@0V,0*68
$GPHDT,144.52,T*03
!AIVDM,1,1,,A,35MvOV0000o?S;bK2jtu:lp020sh,0*45
$GPGGA,214601.00,4716.79378,N,12224.01537,W,2,10,0.8,3.3,M,-18.7,M,6.0,0131*7D
!AIVDM,1,1,,A,15Mi>JP000G?S3LK2QAJi:r20H0g,0*59
$GPRMC,214601.00,A,4716.79378,N,12224.01537,W,0.14,59.51,250819,15.2,E,D*2F
!AIVDM,1,1,,B,ENkb9MI8:SRb@9WbW2@:9V@:0h@;Wma9=Tjvh00003vP000,2*46
!AIVDM,1,1,,A,D03Owph11N>6;8ffp00Nfp0,2*1E
!AIVDM,1,1,,A,D03Owp@1UN>6;Dffp00Nfp0,2*2E
!AIVDM,1,1,,B,D03OwpP1UN>6;TfGL00Nfp0,2*30
!AIVDM,1,1,,B,D03Owph?1N>6:pffp00Nfp0,2*5A
!AIVDM,1,1,,A,D03OwpP?UN>6;4fGL00Nfp0,2*5D
!AIVDM,1,1,,B,D03Owp@?UN>6;4ffp00Nfp0,2*53
!AIVDM,1,1,,A,15MiRi0P01G?S1bK2QBtAgv40@0w,0*69
!AIVDM,1,1,,A,15NL:U501bo?;K:K4ea08@:406bp,0*2A
!AIVDM,1,1,,A,?03Owpi;Eu=8D00,2*73
$GPHDT,144.70,T*03
!AIVDM,1,1,,B,15O1II8P00G?Rw<K2<Fetgv220S;,0*0D
$GPGGA,214602.00,4716.79379,N,12224.01536,W,2,10,0.8,3.3,M,-18.7,M,7.0,0131*7F
!AIVDM,1,1,,A,403Ot`1v><mf2o=sePK=Bbw02<=0,0*30
$GPGNS,214602.00,4716.79379,N,12224.01536,W,D,10,0.8,3.3,-18.7,7.0,0131*12
$GPZDA,214602.00,25,08,2019,00,00*60
!AIVDM,1,1,,B,15Mv<C000So?dS`K3IlD?SB4081N,0*75
$GPRMC,214602.00,A,4716.79379,N,12224.01536,W,0.07,94.49,250819,15.2,E,D*26
$GPGSA,M,3,08,10,13,15,16,20,21,26,27,29,,,1.3,0.8,1.0*36
!AIVDM,1,1,,A,15MlHcP001G?b0`K3@IKAT>62<0Q,0*4B
$GPHDT,144.76,T*05
$GPGGA,214603.00,4716.79379,N,12224.01535,W,2,10,0.8,3.3,M,-18.7,M,7.0,0131*7D
$GPRMC,214603.00,A,4716.79379,N,12224.01535,W,0.20,352.65,250819,15.2,E,D*16
!AIVDM,1,1,,A,35NBpm0PATo?GW2K5jocd9h6210@,0*5E
!AIVDM,1,1,,A,15MvdQP00TG?dgjK3INlAI4806bp,0*3A
!AIVDM,1,1,,B,15MvOV0000o?S;bK2jtuF4p62<0M,0*0C
$GPHDT,144.84,T*08
!AIVDM,1,1,,A,H52aBei0P5<F0TT000000000000,2*5B
$GPGGA,214604.00,4716.79379,N,12224.01535,W,2,10,0.8,3.2,M,-18.7,M,7.0,0131*7B
!AIVDM,1,1,,B,ENkb9Ta8:SRb@9WbW2@:9V@9Sh@;Wdo;=`e>800003vP000,2*31
$GPRMC,214604.00,A,4716.79379,N,12224.01535,W,0.11,159.72,250819,15.2,E,D*1C
!AIVDM,1,1,,A,ENkb9MI8:SRb@9WbW2@:9V@:0h@;Wma9=Tjvh00003vP000,2*45
!AIVDM,1,1,,A,H52aBelU71B=9>00000000107230,0*6F
$GPHDT,144.86,T*0A
$GPGGA,214605.00,4716.79379,N,12224.01535,W,2,10,0.8,3.2,M,-18.7,M,4.0,0131*79
$GPRMC,214605.00,A,4716.79379,N,12224.01535,W,0.18,334.73,250819,15.2,E,D*1C
!AIVDM,1,1,,B,ENkb9Ta8:SRb@9WbW2@:9V@9Sh@;Wdo;=`e>800003vP000,2*31
!AIVDM,1,1,,A,B5NMi`0005kpfM6hSCr:OwRUkP06,0*6A
$GPHDT,144.85,T*09
!AIVDM,1,1,,A,B52P0th00=kpl2VhTJ0lSwRUoP06,0*01
$GPGGA,214606.00,4716.79379,N,12224.01535,W,2,10,0.8,3.2,M,-18.7,M,5.0,0131*7B
$GPRMC,214606.00,A,4716.79379,N,12224.01535,W,0.14,163.49,250819,15.2,E,D*1A
!AIVDM,1,1,,A,B52aBeh0ImkhMKVhrQp>WwS5kP06,0*74
$GPHDT,144.79,T*0A
$GPGGA,214607.00,4716.79379,N,12224.01535,W,2,10,0.8,3.2,M,-18.7,M,6.0,0131*79
$GPGNS,214607.00,4716.79379,N,12224.01535,W,D,10,0.8,3.2,-18.7,6.0,0131*14
$GPZDA,214607.00,25,08,2019,00,00*65
!AIVDM,1,1,,A,35MvOV0000o?S;bK2ju=@lp>2000,0*63
$GPRMC,214607.00,A,4716.79379,N,12224.01535,W,0.08,33.71,250819,15.2,E,D*29
$GPGSA,M,3,08,10,13,15,16,20,21,26,27,29,,,1.3,0.8,1.0*36
!AIVDM,1,1,,A,B5O1fu00>Ukjo2Vi7tAqwwSUkP06,0*7C
$GPHDT,144.80,T*0C
!AIVDM,1,1,,A,ENkb9MI8:SRb@9WbW2@:9V@:0h@;Wma9=Tjvh00003vP000,2*45
$GPGGA,214608.00,4716.79379,N,12224.01535,W,2,10,0.8,3.2,M,-18.7,M,7.0,0131*77
!AIVDM,1,1,,B,ENkb9MI8:SRb@9WbW2@:9V@:0h@;Wma9=Tjvh00003vP000,2*46
$GPRMC,214608.00,A,4716.79379,N,12224.01535,W,0.14,279.28,250819,15.2,E,D*1B
!AIVDM,1,1,,A,ENkb9Ta8:SRb@9WbW2@:9V@9Sh@;Wdo;=`e>800003vP000,2*32
$GPHDT,144.90,T*0D
$GPGGA,214609.00,4716.79379,N,12224.01535,W,2,10,0.8,3.2,M,-18.7,M,7.0,0131*76
$GPRMC,214609.00,A,4716.79379,N,12224.01535,W,0.09,119.61,250819,15.2,E,D*1E
!AIVDM,1,1,,B,ENkb9MI8:SRb@9WbW2@:9V@:0h@;Wma9=Tjvh00003vP000,2*46
!AIVDM,1,1,,A,15NHVu`P0AG?BbVK3rklf?vD0<1K,0*58
!AIVDM,1,1,,B,403Ot`Qv><mf9o@7;VK?ffg0285o,0*58
$GPHDT,144.85,T*09
$GPGGA,214610.00,4716.79379,N,12224.01535,W,2,10,0.8,3.3,M,-18.7,M,7.0,0131*7F
$GPRMC,214610.00,A,4716.79379,N,12224.01535,W,0.04,111.95,250819,15.2,E,D*18
!AIVDM,1,1,,A,35NBpm0PAUo?GO<K5k=sWqbD21vh,0*67
!AIVDM,1,1,,B,B5NWNf000=kqKWVi0F0IkwU5oP06,0*1D
!AIVDM,1,1,,B,15Mi>JP000G?S3LK2Q@Wh:rD06bp,0*0A
!AIVDM,1,1,,A,B5NM:GP00=kk7F6i5I0JOwUUWP06,0*53
$GPHDT,144.87,T*0B
$GPGGA,214611.00,4716.79379,N,12224.01535,W,2,10,0.8,3.3,M,-18.7,M,4.0,0131*7D
!AIVDM,1,1,,B,35MvOV0000o?S;bK2jtu<DpD20uP,0*22
$GPRMC,214611.00,A,4716.79379,N,12224.01535,W,0.01,336.15,250819,15.2,E,D*13
!AIVDM,1,1,,A,15O1II8P00G?Rw>K2<FetgvF286f,0*48
!AIVDM,1,1,,B,15MlHcP000G?b0NK3@J;ED>H2<0Q,0*7E
!AIVDM,1,1,,B,15NL:U501bo?;KvK4fk08@<H0@6p,0*34
!AIVDM,1,1,,B,15MiRi0P00G?S2@K2Q<dCOvJ0<0e,0*1E
$GPHDT,144.97,T*0A
$GPGGA,214612.00,4716.79379,N,12224.01534,W,2,10,0.8,3.3,M,-18.7,M,5.0,0131*7E
!AIVDM,1,1,,B,403Ot`1v><mf<o=se@K=Bdw02<=6,0*2D
!AIVDM,1,1,,B,ENkb9Ta8:SRb@9WbW2@:9V@9Sh@;Wdo;=`e>800003vP000,2*31
$GPGNS,214612.00,4716.79379,N,12224.01534,W,D,10,0.8,3.3,-18.7,5.0,0131*13
$GPZDA,214612.00,25,08,2019,00,00*61
!AIVDM,1,1,,A,15Mv<C000So?dWtK3Ie4=3BH0<0s,0*39
$GPRMC,214612.00,A,4716.79379,N,12224.01534,W,0.08,292.58,250819,15.2,E,D*1E
$GPGSA,M,3,08,10,13,15,16,20,21,26,27,29,,,1.3,0.8,1.0*36
!AIVDM,1,1,,A,ENkb9MI8:SRb@9WbW2@:9V@:0h@;Wma9=Tjvh00003vP000,2*45
$GPHDT,144.93,T*0E
$GPGGA,214613.00,4716.79379,N,12224.01534,W,2,10,0.8,3.3,M,-18.7,M,6.0,0131*7C
$GPRMC,214613.00,A,4716.79379,N,12224.01534,W,0.12,144.76,250819,15.2,E,D*10
!AIVDM,1,1,,B,ENkb9Ta8:SRb@9WbW2@:9V@9Sh@;Wdo;=`e>800003vP000,2*31
!AIVDM,1,1,,B,35NBpm0PAUo?GK`K5kH;U9TJ20wP,0*4B
!AIVDM,1,1,,A,?03Owpi@`DR@D00,2*0B
$GPHDT,144.90,T*0D
$GPGGA,214614.00,4716.79379,N,12224.01535,W,2,10,0.8,3.3,M,-18.7,M,7.0,0131*7B
$GPRMC,214614.00,A,4716.79379,N,12224.01535,W,0.17,290.94,250819,15.2,E,D*15
!AIVDM,1,1,,B,H52aJe@I8FN0ltlDq@000000000,2*1E
!AIVDM,1,1,,B,15MvdQP00TG?dlPK3IEl@q4N00RG,0*4D
!AIVDM,1,1,,B,B5NaV<000=krvjVhod=L7wW5oP06,0*40
!AIVDM,1,1,,A,35MvOV0000o?S;bK2jtuAlpL20tA,0*6C
$GPHDT,144.91,T*0C
$GPGGA,214615.00,4716.79380,N,12224.01535,W,2,10,0.8,3.3,M,-18.7,M,7.0,0131*7C
$GPRMC,214615.00,A,4716.79380,N,12224.01535,W,0.22,329.79,250819,15.2,E,D*14
!AIVDM,1,1,,B,H52aJeDTB1I0000>g100000p7220,0*21
!AIVDM,1,1,,B,B5O2RDP005kpc@6hW5quPbWUCP06,0*79
$GPHDT,144.98,T*05
$GPGGA,214616.00,4716.79380,N,12224.01535,W,2,10,0.8,3.3,M,-18.7,M,7.0,0131*7F
!AIVDM,1,1,,B,B5NMwC000Ekv8u6hdwvi;w`5oP06,0*32
!AIVDM,1,1,,B,ENkb9MI8:SRb@9WbW2@:9V@:0h@;Wma9=Tjvh00003vP000,2*46
$GPRMC,214616.00,A,4716.79380,N,12224.01535,W,0.11,68.64,250819,15.2,E,D*2D
!AIVDM,1,1,,A,ENkb9Ta8:SRb@9WbW2@:9V@9Sh@;Wdo;=`e>800003vP000,2*32
$GPHDT,144.95,T*08
$GPGGA,214617.00,4716.79380,N,12224.01534,W,2,10,0.8,3.3,M,-18.7,M,4.0,0131*7C
$GPGNS,214617.00,4716.79380,N,12224.01534,W,D,10,0.8,3.3,-18.7,4.0,0131*11
!AIVDM,1,1,,B,ENkb9MI8:SRb@9WbW2@:9V@:0h@;Wma9=Tjvh00003vP000,2*46
!AIVDM,1,1,,A,15NBpm0PAUo?GFtK5kTsSIRR2<0W,0*23
$GPZDA,214617.00,25,08,2019,00,00*64
$GPRMC,214617.00,A,4716.79380,N,12224.01534,W,0.11,230.32,250819,15.2,E,D*11
$GPGSA,M,3,08,10,13,15,16,20,21,26,27,29,,,1.3,0.8,1.0*36
!AIVDM,1,1,,A,34QjLb0Oj:o?bH2K?u<TE3PR0Pv@,0*18
!AIVDM,1,1,,B,35MvOV0000o?S;bK2jtuH4pR2000,0*15
!AIVDM,1,1,,B,B52aoS000MkqQD6i0e::Gw`UoP06,0*79
$GPHDT,144.90,T*0D
$GPGGA,214618.00,4716.79380,N,12224.01534,W,2,10,0.8,3.3,M,-18.7,M,5.0,0131*72
$GPRMC,214618.00,A,4716.79380,N,12224.01534,W,0.04,266.41,250819,15.2,E,D*1D
$GPHDT,144.92,T*0F
$GPGGA,214619.00,4716.79380,N,12224.01533,W,2,10,0.8,3.3,M,-18.7,M,6.0,0131*77
$GPRMC,214619.00,A,4716.79380,N,12224.01533,W,0.19,295.46,250819,15.2,E,D*1C
!AIVDM,1,1,,B,15NHVu`P0AG?BdbK3rfTfwv`2<1K,0*32
!AIVDM,1,1,,A,?03OwpiGhdc`D00,2*35
!AIVDM,1,1,,A,403Ot`Qv><mfCo@7;bK?ffg02<6g,0*1A
$GPHDT,144.81,T*0D
!AIVDM,1,1,,B,?03OwpQGh`U8D00,2*64
$GPGGA,214620.00,4716.79379,N,12224.01533,W,2,10,0.8,3.3,M,-18.7,M,7.0,0131*7A
!AIVDM,1,1,,B,ENkb9Ta8:SRb@9WbW2@:9V@9Sh@;Wdo;=`e>800003vP000,2*31
$GPRMC,214620.00,A,4716.79379,N,12224.01533,W,0.09,274.31,250819,15.2,E,D*1E
!AIVDM,1,1,,B,35NBpm0PAUo?GCLK5kesQaP`21qP,0*7F
!AIVDM,1,1,,B,15O1II8P00G?RwJK2<Eetgv`2D0E,0*43
!AIVDM,1,1,,A,ENkb9MI8:SRb@9WbW2@:9V@:0h@;Wma9=Tjvh00003vP000,2*45
!AIVDM,1,1,,A,15Mi>JP000G?S3RK2Q@EBJr`0@<;,0*18
!AIVDM,1,1,,A,403Owpiv><mfDo=shpK=Bf?02L<C,0*6E
!AIVDM,1,1,,B,403Owpiv><mfDo=shpK=Bf?02L<C,0*6D
!AIVDM,1,1,,A,403OwpAv><mfDo?l2FK7I2O026bp,0*05
!AIVDM,1,1,,A,403OwpQv><mfDG?:IVK4L7O02@<B,0*19
!AIVDM,1,1,,B,403OwpAv><mfDo?l2FK7I2O026bp,0*06
!AIVDM,1,1,,B,403OwpQv><mfDG?:IVK4L7O02@<D,0*1C
$GPHDT,144.71,T*02
$GPGGA,214621.00,4716.79379,N,12224.01533,W,2,10,0.8,3.3,M,-18.7,M,7.0,0131*7B
$GPRMC,214621.00,A,4716.79379,N,12224.01533,W,0.02,258.66,250819,15.2,E,D*18
!AIVDM,1,1,,B,ENkb9Ta8:SRb@9WbW2@:9V@9Sh@;Wdo;=`e>800003vP000,2*31
!AIVDM,1,1,,A,35MvOV0000o?S;bK2jtuCTpb20uh,0*50
!AIVDM,1,1,,A,D03OwpAOEN>5LLffqMhNfp0,2*19
!AIVDM,1,1,,B,D03OwpQOEN>5LdfGMMhNfp0,2*3F
!AIVDM,1,1,,B,D03OwpidiN>5L0ffqMhNfp0,2*49
!AIVDM,1,1,,A,D03OwpQeEN>5L<fGMMhNfp0,2*4E
!AIVDM,1,1,,B,D03OwpAeEN>5L<ffqMhNfp0,2*40
!AIVDM,1,1,,A,15NL:U501bo?;LbK4gu07@:d0@<j,0*0E
!AIVDM,1,1,,B,15Mv<C000To?dcrK3IVT;SDb0<0t,0*11
$GPHDT,144.70,T*03
$GPGGA,214622.00,4716.79379,N,12224.01533,W,2,10,0.8,3.3,M,-18.7,M,7.0,0131*78
!AIVDM,1,1,,A,403Ot`1v><mfFo=se<K=Be?02<=6,0*61
$GPGNS,214622.00,4716.79379,N,12224.01533,W,D,10,0.8,3.3,-18.7,7.0,0131*15
$GPZDA,214622.00,25,08,2019,00,00*62
$GPRMC,214622.00,A,4716.79379,N,12224.01533,W,0.07,102.28,250819,15.2,E,D*18
$GPGSA,M,3,08,10,13,15,16,20,21,26,27,29,,,1.3,0.8,1.0*36
!AIVDM,1,1,,A,15MiRi0P01G?S2FK2Q;dFwvh08=F,0*28
$GPHDT,144.59,T*08
!AIVDM,1,1,,A,15MlHcP000G?b0@K3@KKH4>f2H=Q,0*28
$GPGGA,214623.00,4716.79378,N,12224.01532,W,2,10,0.8,3.3,M,-18.7,M,4.0,0131*7A
!AIVDM,1,1,,B,B5O262P005krvQVhp4G13wcUWP06,0*0F
$GPRMC,214623.00,A,4716.79378,N,12224.01532,W,0.11,153.94,250819,15.2,E,D*1D
!AIVDM,1,1,,A,35NBpm0PAVo?G?tK5knKOqNf20uP,0*1B
!AIVDM,1,1,,A,B52PEi@0?=kfBmViB?M`kwcUoP06,0*33
$GPHDT,144.58,T*09
$GPGGA,214624.00,4716.79378,N,12224.01532,W,2,10,0.8,3.3,M,-18.7,M,5.0,0131*7C
!AIVDM,1,1,,A,H5NdoGQLTr1@PF0@5T000000000,2*26
!AIVDM,1,1,,B,ENkb9MI8:SRb@9WbW2@:9V@:0h@;Wma9=Tjvh00003vP000,2*46
$GPRMC,214624.00,A,4716.79378,N,12224.01532,W,0.03,228.82,250819,15.2,E,D*11
!AIVDM,1,1,,B,35MvOV0000o?S;bK2jtu=Tph20vA,0*0D
!AIVDM,1,1,,B,B5NKuW0065kmmwVi;ODTgwd5kP06,0*4D
!AIVDM,1,1,,A,ENkb9Ta8:SRb@9WbW2@:9V@9Sh@;Wdo;=`e>800003vP000,2*32
$GPHDT,144.47,T*07
$GPGGA,214625.00,4716.79378,N,12224.01531,W,2,10,0.8,3.3,M,-18.7,M,6.0,0131*7D
$GPRMC,214625.00,A,4716.79378,N,12224.01531,W,0.04,84.85,250819,15.2,E,D*27
!AIVDM,1,1,,B,ENkb9MI8:SRb@9WbW2@:9V@:0h@;Wma9=Tjvh00003vP000,2*46
!AIVDM,1,1,,A,?03Owpj0AF80D00,2*41
!AIVDM,1,1,,A,?03Owpi@b4@DD00,2*6F
$GPHDT,144.37,T*00
!AIVDM,1,1,,A,?03OwpA@`Ej<D00,2*66
$GPGGA,214626.00,4716.79378,N,12224.01531,W,2,10,0.8,3.3,M,-18.7,M,7.0,0131*7F
$GPRMC,214626.00,A,4716.79378,N,12224.01531,W,0.12,340.85,250819,15.2,E,D*18
!AIVDM,1,1,,B,H5O2RDQ0DpqV0h4pD0000000000,2*1B
!AIVDM,1,1,,B,H5O2RDTUFC@<9?8G4;piqj0h6120,0*62
!AIVDM,1,1,,B,15NBpm0PAVo?G<HK5kvcMqLl2<0W,0*51
$GPHDT,144.26,T*00
$GPGGA,214627.00,4716.79378,N,12224.01531,W,2,10,0.8,3.3,M,-18.7,M,7.0,0131*7E
$GPGNS,214627.00,4716.79378,N,12224.01531,W,D,10,0.8,3.3,-18.7,7.0,0131*13
$GPZDA,214627.00,25,08,2019,00,00*67
$GPRMC,214627.00,A,4716.79378,N,12224.01531,W,0.10,4.12,250819,15.2,E,D*16
$GPGSA,M,3,08,10,13,15,16,20,21,26,27,29,,,1.3,0.8,1.0*36
$GPHDT,144.11,T*04
!AIVDM,1,1,,B,H5NdKjQ`E0QU800000000000000,2*29
$GPGGA,214628.00,4716.79378,N,12224.01531,W,2,10,0.8,3.3,M,-18.7,M,7.0,0131*71
!AIVDM,1,1,,B,ENkb9Ta8:SRb@9WbW2@:9V@9Sh@;Wdo;=`e>800003vP000,2*31
$GPRMC,214628.00,A,4716.79378,N,12224.01531,W,0.10,298.29,250819,15.2,E,D*16
!AIVDM,1,1,,A,ENkb9MI8:SRb@9WbW2@:9V@:0h@;Wma9=Tjvh00003vP000,2*45
$GPHDT,144.05,T*01
$GPGGA,214629.00,4716.79378,N,12224.01533,W,2,10,0.8,3.3,M,-18.7,M,4.0,0131*71
$GPRMC,214629.00,A,4716.79378,N,12224.01533,W,0.04,236.88,250819,15.2,E,D*1F
!AIVDM,2,1,7,B,55O`pP4000004A@L001E<5J0PDq9V0dpuP00000O00000t0Ht<fP00000000,0*52
!AIVDM,2,2,7,B,00000000008,2*28
!AIVDM,1,1,,B,B5MtTD001Mkmt96hoRuoswfUoP06,0*3B
!AIVDM,1,1,,B,15Mi>JP000G?S3NK2Q?sM:rt00S;,0*3A
!AIVDM,1,1,,B,403Ot`Qv><mfMo@7;VK?ffw028AU,0*72
$GPHDT,143.96,T*0C
$GPGGA,214630.00,4716.79378,N,12224.01533,W,2,10,0.8,3.3,M,-18.7,M,5.0,0131*78
$GPRMC,214630.00,A,4716.79378,N,12224.01533,W,0.11,108.30,250819,15.2,E,D*1E
!AIVDM,1,1,,A,35NBpm0PAVo?G7`K5l9cMaNt21rh,0*41
$GPHDT,143.97,T*0D
!AIVDM,1,1,,A,15NHVu`P0AG?BfRK3rVDkOvv20RF,0*62
$GPGGA,214631.00,4716.79379,N,12224.01531,W,2,10,0.8,3.3,M,-18.7,M,6.0,0131*79
!AIVDM,1,1,,B,35MvOV0000o?S;bK2jttplpt20u0,0*17
!AIVDM,1,1,,B,15MiRi0P00G?S2:K2Q=LKOw008BG,0*6A
$GPRMC,214631.00,A,4716.79379,N,12224.01531,W,0.06,51.77,250819,15.2,E,D*24
!AIVDM,1,1,,A,15O1II8P00G?RwRK2<E=tgvv2L0E,0*1E
$GPHDT,143.89,T*02
$GPGGA,214632.00,4716.79379,N,12224.01531,W,2,10,0.8,3.3,M,-18.7,M,7.0,0131*7B
!AIVDM,2,1,8,B,55O1II000001L@gK;SHp5E@V0@4p<E800000000U1@:52400050000000000,0*2A
!AIVDM,2,2,8,B,00000000000,2*2F
!AIVDM,1,1,,B,403Ot`1v><mfPo=se6K=BeO02<=6,0*0E
!AIVDM,1,1,,B,ENkb9MI8:SRb@9WbW2@:9V@:0h@;Wma9=Tjvh00003vP000,2*46
$GPGNS,214632.00,4716.79379,N,12224.01531,W,D,10,0.8,3.3,-18.7,7.0,0131*16
$GPZDA,214632.00,25,08,2019,00,00*63
!AIVDM,1,1,,A,15Mv<C000To?dhfK3IN4>3G006bp,0*1D
!AIVDM,1,1,,B,15Mv<C000To?dhfK3IN4>3G006bp,0*1E
$GPRMC,214632.00,A,4716.79379,N,12224.01531,W,0.00,37.28,250819,15.2,E,D*2B
!AIVDM,1,1,,B,15NL:U501bo?;MPK4i=P7@=20@C:,0*66
$GPGSA,M,3,08,10,13,15,16,20,21,26,27,29,,,1.3,0.8,1.0*36
!AIVDM,1,1,,A,ENkb9Ta8:SRb@9WbW2@:9V@9Sh@;Wdo;=`e>800003vP000,2*32
!AIVDM,1,1,,B,15MlHcP000G?b06K3@KKAT?22@CE,0*03
$GPHDT,143.77,T*03
$GPGGA,214633.00,4716.79379,N,12224.01532,W,2,10,0.8,3.3,M,-18.7,M,7.0,0131*79
$GPRMC,214633.00,A,4716.79379,N,12224.01532,W,0.14,131.57,250819,15.2,E,D*13
!AIVDM,1,1,,B,ENkb9MI8:SRb@9WbW2@:9V@:0h@;Wma9=Tjvh00003vP000,2*46
!AIVDM,1,1,,B,35NBpm001Vo?G44K5lB;NaO220uP,0*5C
!AIVDM,1,1,,B,B52aBeh0IUkhOdVhs@85owhUkP06,0*52
!AIVDM,1,1,,B,15MvdQP00UG?dtfK3I5lA99406bp,0*2D
$GPHDT,143.71,T*05
$GPGGA,214634.00,4716.79379,N,12224.01532,W,2,10,0.8,3.3,M,-18.7,M,7.0,0131*7E
$GPRMC,214634.00,A,4716.79379,N,12224.01532,W,0.11,45.32,250819,15.2,E,D*20
$GPHDT,143.63,T*06
!AIVDM,1,1,,B,ENkb9Ma9Q@@@@@@@@@@@@@@@@@@;W@2v=hvOP00003vP000,2*29
$GPGGA,214635.00,4716.79379,N,12224.01531,W,2,10,0.8,3.3,M,-18.7,M,4.0,0131*7F
$GPRMC,214635.00,A,4716.79379,N,12224.01531,W,0.16,341.00,250819,15.2,E,D*13
!AIVDM,1,1,,A,B5NSFg000=kpld6hRT@00aAUCP06,0*0B
$GPHDT,143.71,T*05
!AIVDM,1,1,,B,B52c0f0005ke>=ViH5I9kwiUkP06,0*72
$GPGGA,214636.00,4716.79379,N,12224.01532,W,2,10,0.8,3.3,M,-18.7,M,5.0,0131*7E
!AIVDM,1,1,,B,ENkb9Ta8:SRb@9WbW2@:9V@9Sh@;Wdo;=`e>800003vP000,2*31
$GPRMC,214636.00,A,4716.79379,N,12224.01532,W,0.01,344.47,250819,15.2,E,D*13
!AIVDM,1,1,,B,15NcIU?000G?v9<K?@Hnrjg:06bp,0*57
!AIVDM,1,1,,A,ENkb9MI8:SRb@9WbW2@:9V@:0h@;Wma9=Tjvh00003vP000,2*45
$GPHDT,143.70,T*04
!AIVDM,1,1,,B,B5O1fu009Ukjn46i7VUo;wj5kP06,0*22
$GPGGA,214637.00,4716.79379,N,12224.01532,W,2,10,0.8,3.3,M,-18.7,M,6.0,0131*7C
!AIVDM,2,1,9,B,55MjJN41hhs=Ma=b220<50F0U<h4pB2222222216Bhr??5hk0CE0@kk@H888,0*63
!AIVDM,2,2,9,B,88888888880,2*2E
$GPGNS,214637.00,4716.79379,N,12224.01532,W,D,10,0.8,3.3,-18.7,6.0,0131*11
!AIVDM,1,1,,B,ENkb9Ta8:SRb@9WbW2@:9V@9Sh@;Wdo;=`e>800003vP000,2*31
!AIVDM,1,1,,A,B52Qpsh005kema6iEs=?3wj5kP06,0*23
$GPZDA,214637.00,25,08,2019,00,00*66
!AIVDM,1,1,,A,H52Quc0:0`00000000000000000,2*46
!AIVDM,1,1,,B,35MvOV0000o?S;bK2jtu:Tq:2000,0*6E
!AIVDM,1,1,,A,15NBpm001Vo?FwDK5lMcQ9S:28F1,0*31
$GPRMC,214637.00,A,4716.79379,N,12224.01532,W,0.03,345.55,250819,15.2,E,D*12
$GPGSA,M,3,08,10,13,15,16,20,21,26,27,29,,,1.3,0.8,1.0*36
!AIVDM,1,1,,B,35MvOV0000o?S;bK2jtu:Tq:2000,0*6E
$GPHDT,143.69,T*0C
$GPGGA,214638.00,4716.79379,N,12224.01530,W,2,10,0.8,3.3,M,-18.7,M,7.0,0131*70
!AIVDM,1,1,,B,H5NdKjTTCBD5rDCG49omkh1`1310,0*4F
$GPRMC,214638.00,A,4716.79379,N,12224.01530,W,0.06,283.88,250819,15.2,E,D*11
!AIVDM,2,1,0,B,55MiRi02<=>IL=c;3CL<PTDJ222222222222220l28A6665BN<m0@kk@H888,0*57
!AIVDM,2,2,0,B,88888888880,2*27
$GPHDT,143.69,T*0C
$GPGGA,214639.00,4716.79379,N,12224.01531,W,2,10,0.8,3.3,M,-18.7,M,7.0,0131*70
$GPRMC,214639.00,A,4716.79379,N,12224.01531,W,0.14,306.89,250819,15.2,E,D*1F
$GPHDT,143.80,T*0B
!AIVDM,1,1,,B,35NBpm001Vo?FtpK5lT;RaU@21wh,0*00
$GPGGA,214640.00,4716.79380,N,12224.01531,W,2,10,0.8,3.3,M,-18.7,M,7.0,0131*78
!AIVDM,1,1,,B,ENkb9MI8:SRb@9WbW2@:9V@:0h@;Wma9=Tjvh00003vP000,2*46
!AIVDM,1,1,,A,15Mi>JP000G?S3PK2Q?<Lbs@08Ga,0*42
$GPRMC,214640.00,A,4716.79380,N,12224.01531,W,0.13,103.28,250819,15.2,E,D*1C
!AIVDM,1,1,,B,B5NSIgP04mkhuE6hlJ4PgwkUkP06,0*64
!AIVDM,1,1,,A,ENkb9Ta8:SRb@9WbW2@:9V@9Sh@;Wdo;=`e>800003vP000,2*32
!AIVDM,1,1,,A,403Owpiv><mf`o=siDK=BgO02L<C,0*0E
!AIVDM,1,1,,B,403Owpiv><mf`o=siDK=BgO02L<C,0*0D
!AIVDM,1,1,,A,403OwpAv><mf`o?l2FK7I2O026bp,0*21
!AIVDM,1,1,,A,403OwpQv><mf`o?:JfK4KRg02@H0,0*6A
!AIVDM,1,1,,B,403OwpAv><mf`o?l2FK7I2O026bp,0*22
!AIVDM,1,1,,B,403OwpQv><mf`o?:JfK4KRg02@H2,0*6B
!AIVDM,1,1,,A,403Ovjiv><mf`o?uqDK>h2?028H2,0*74
$GPHDT,143.76,T*02
!AIVDM,1,1,,B,15O1II8P00G?RwLK2<F08ww@2@H5,0*62
$GPGGA,214641.00,4716.79380,N,12224.01531,W,2,10,0.8,3.3,M,-18.7,M,4.0,0131*7A
!AIVDM,1,1,,A,35MvOV0000o?S;bK2jtu44q@20uh,0*64
!AIVDM,1,1,,B,15NHVu`P0AG?BhBK3rQls?wD06bp,0*09
$GPRMC,214641.00,A,4716.79380,N,12224.01531,W,0.04,262.65,250819,15.2,E,D*16
!AIVDM,1,1,,B,ENkb9MI8:SRb@9WbW2@:9V@:0h@;Wma9=Tjvh00003vP000,2*46
!AIVDM,1,1,,A,D03OwphgqN>4eHffpfpNfp0,2*32
!AIVDM,1,1,,A,D03Owp@hMN>4eTffpfpNfp0,2*35
!AIVDM,1,1,,B,D03OwpPhMN>4elfGLfpNfp0,2*03
!AIVDM,1,1,,B,D03OwphuqN>4e8ffpfpNfp0,2*53
!AIVDM,1,1,,A,D03OwpPvMN>4eDfGLfpNfp0,2*36
!AIVDM,1,1,,B,D03Owp@vMN>4eDffpfpNfp0,2*38
!AIVDM,1,1,,A,35MjJN5000G?L;FK3?HII3MD0Dp:,0*44
!AIVDM,1,1,,A,15MiRi0P01G?S1vK2Q>tWgwF08HR,0*41
$GPHDT,143.71,T*05
$GPGGA,214642.00,4716.79381,N,12224.01530,W,2,10,0.8,3.3,M,-18.7,M,5.0,0131*78
!AIVDM,1,1,,B,15Mv<C000To?dlVK3IFT?kGD0@Hg,0*24
!AIVDM,1,1,,A,403Ot`1v><mfbo=sdrK=BfO02<=6,0*79
$GPGNS,214642.00,4716.79381,N,12224.01530,W,D,10,0.8,3.3,-18.7,5.0,0131*15
$GPZDA,214642.00,25,08,2019,00,00*64
$GPRMC,214642.00,A,4716.79381,N,12224.01530,W,0.03,184.51,250819,15.2,E,D*1E
$GPGSA,M,3,08,10,13,15,16,20,21,26,27,29,,,1.3,0.8,1.0*36
!AIVDM,1,1,,A,15MlHcP000G?b00K3@K;F4?F28I:,0*68
$GPHDT,143.60,T*05
$GPGGA,214643.00,4716.79381,N,12224.01531,W,2,10,0.8,3.3,M,-18.7,M,6.0,0131*7B
$GPRMC,214643.00,A,4716.79381,N,12224.01531,W,0.06,295.17,250819,15.2,E,D*1A
!AIVDM,2,1,1,A,55NcIU42ET2aL@WGSG@<PTl4=Dn222222222220t3QB?=40Ht04i@E531H88,0*25
!AIVDM,2,2,1,A,88888888880,2*25
!AIVDM,1,1,,A,35NBpm001Vo?Fp<K5lhcTaaF211P,0*65
!AIVDM,1,1,,A,34QjLb002:o?c1vK?saTMSSF0R6h,0*4D
!AIVDM,1,1,,A,15MvdQP00TG?e16K3HuDAa9H0<0v,0*28
!AIVDM,1,1,,A,?03Owpi@bRKDD00,2*02
$GPHDT,143.54,T*02
$GPGGA,214644.00,4716.79382,N,12224.01531,W,2,10,0.8,3.3,M,-18.7,M,7.0,0131*7E
!AIVDM,1,1,,B,ENkb9Ta8:SRb@9WbW2@:9V@9Sh@;Wdo;=`e>800003vP000,2*31
$GPRMC,214644.00,A,4716.79382,N,12224.01531,W,0.17,330.89,250819,15.2,E,D*17
!AIVDM,1,1,,A,ENkb9MI8:SRb@9WbW2@:9V@:0h@;Wma9=Tjvh00003vP000,2*45
$GPHDT,143.50,T*06
!AIVDM,1,1,,B,35MvOV0000o?S;bK2jtu7DqH20oi,0*07
$GPGGA,214645.00,4716.79381,N,12224.01530,W,2,10,0.8,3.3,M,-18.7,M,7.0,0131*7D
$GPRMC,214645.00,A,4716.79381,N,12224.01530,W,0.03,239.65,250819,15.2,E,D*1B
!AIVDM,1,1,,B,ENkb9Ta8:SRb@9WbW2@:9V@9Sh@;Wdo;=`e>800003vP000,2*31
$GPHDT,143.43,T*04
$GPGGA,214646.00,4716.79381,N,12224.01531,W,2,10,0.8,3.3,M,-18.7,M,7.0,0131*7F
$GPRMC,214646.00,A,4716.79381,N,12224.01531,W,0.06,138.42,250819,15.2,E,D*1B
!AIVDM,1,1,,B,B52Mmc@00=kqHs6i0qFSgwo5oP06,0*07
$GPHDT,143.45,T*02
$GPGGA,214647.00,4716.79382,N,12224.01529,W,2,10,0.8,3.3,M,-18.7,M,4.0,0131*77
!AIVDM,1,1,,B,15NBpm001Wo?FkLK5lvsWIeN28Ke,0*61
$GPGNS,214647.00,4716.79382,N,12224.01529,W,D,10,0.8,3.3,-18.7,4.0,0131*1A
$GPZDA,214647.00,25,08,2019,00,00*61
$GPRMC,214647.00,A,4716.79382,N,12224.01529,W,0.04,331.79,250819,15.2,E,D*11
$GPGSA,M,3,08,10,13,15,16,20,21,26,27,29,,,1.3,0.8,1.0*36
!AIVDM,1,1,,A,15NcIU?000G?v8PK?@HCIRgP08Kw,0*5D
!AIVDM,1,1,,A,35MvOV0000o?S;bK2jtu;4qN2000,0*78
!AIVDM,1,1,,A,H52Quc4RCD=7:=I00000000P6220,0*5D
$GPHDT,143.28,T*09
$GPGGA,214648.00,4716.79383,N,12224.01530,W,2,10,0.8,3.3,M,-18.7,M,5.0,0131*70
!AIVDM,1,1,,B,ENkb9MI8:SRb@9WbW2@:9V@:0h@;Wma9=Tjvh00003vP000,2*46
$GPRMC,214648.00,A,4716.79383,N,12224.01530,W,0.17,286.75,250819,15.2,E,D*14
!AIVDM,1,1,,A,ENkb9Ta8:SRb@9WbW2@:9V@9Sh@;Wdo;=`e>800003vP000,2*32
!AIVDM,1,1,,A,15Mj26000Mo?uu`K?>rBi2;R0D1w,0*36
$GPHDT,143.24,T*05
$GPGGA,214649.00,4716.79383,N,12224.01530,W,2,10,0.8,3.3,M,-18.7,M,6.0,0131*72
$GPRMC,214649.00,A,4716.79383,N,12224.01530,W,0.09,121.52,250819,15.2,E,D*11
!AIVDM,1,1,,A,15NHVu`P0AG?BifK3rMTmOwT28Ls,0*54
!AIVDM,1,1,,B,ENkb9MI8:SRb@9WbW2@:9V@:0h@;Wma9=Tjvh00003vP000,2*46
!AIVDM,1,1,,B,403Ot`Qv><mfio@7;@K?fhO028MC,0*6C
$GPHDT,143.13,T*01
$GPGGA,214650.00,4716.79383,N,12224.01529,W,2,10,0.8,3.3,M,-18.7,M,7.0,0131*73
$GPRMC,214650.00,A,4716.79383,N,12224.01529,W,0.03,292.49,250819,15.2,E,D*1A
!AIVDM,1,1,,A,35NBpm001Wo?FgvK5m9KaagT21rP,0*23
$GPHDT,143.11,T*03
!AIVDM,1,1,,B,15Mi>JP000G?S3`K2Q>umbsV0@Ms,0*6E
!AIVDM,1,1,,B,35MvOV0000o?S;bK2jtu74qT2110,0*6D
$GPGGA,214651.00,4716.79383,N,12224.01529,W,2,10,0.8,3.4,M,-18.7,M,7.0,0131*75
!AIVDM,1,1,,A,15Mv<C000To?dpPK3I?T?SGV0D0u,0*00
!AIVDM,1,1,,B,15MlHcP000G?awrK3@LcIl?`2<0R,0*56
$GPRMC,214651.00,A,4716.79383,N,12224.01529,W,0.08,136.79,250819,15.2,E,D*1E
!AIVDM,1,1,,A,15O1II8P00G?RwfK2<G@9?wV26bp,0*7C
$GPHDT,143.10,T*02
$GPGGA,214652.00,4716.79383,N,12224.01529,W,2,10,0.8,3.4,M,-18.7,M,7.0,0131*76
!AIVDM,1,1,,B,403Ot`1v><mflo=sd`K=Bgw02<=6,0*5F
!AIVDM,1,1,,B,ENkb9Ta8:SRb@9WbW2@:9V@9Sh@;Wdo;=`e>800003vP000,2*31
$GPGNS,214652.00,4716.79383,N,12224.01529,W,D,10,0.8,3.4,-18.7,7.0,0131*1B
!AIVDM,1,1,,A,B5O262P00Ekrv3Vhp24U3wr5SP06,0*7A
!AIVDM,1,1,,B,15MiRi0P01G?S1nK2Q@<`Owb0HNe,0*16
$GPZDA,214652.00,25,08,2019,00,00*65
!AIVDM,1,1,,A,B5NdoGP005kk1WVi5S3Q3wr5kP06,0*55
$GPRMC,214652.00,A,4716.79383,N,12224.01529,W,0.04,60.23,250819,15.2,E,D*2C
$GPGSA,M,3,08,10,13,15,16,20,21,26,27,29,,,1.3,0.8,1.0*36
!AIVDM,1,1,,A,ENkb9MI8:SRb@9WbW2@:9V@:0h@;Wma9=Tjvh00003vP000,2*45
!AIVDM,1,1,,B,15NL:U501co?;O8K4kRP:0=b0@Nt,0*0E
$GPHDT,143.08,T*0B
!AIVDM,1,1,,B,15MvdQP00TG?e50K3HmlB99b00S=,0*4C
$GPGGA,214653.00,4716.79383,N,12224.01528,W,2,10,0.8,3.4,M,-18.7,M,4.0,0131*75
$GPRMC,214653.00,A,4716.79383,N,12224.01528,W,0.03,261.11,250819,15.2,E,D*19
!AIVDM,1,1,,B,ENkb9Ta8:SRb@9WbW2@:9V@9Sh@;Wdo;=`e>800003vP000,2*31
!AIVDM,1,1,,B,35NBpm0OiWo?FdRK5mCKcqkb20u@,0*64
$GPHDT,143.05,T*06
$GPGGA,214654.00,4716.79383,N,12224.01529,W,2,10,0.8,3.4,M,-18.7,M,5.0,0131*72
$GPRMC,214654.00,A,4716.79383,N,12224.01529,W,0.15,122.92,250819,15.2,E,D*17
$GPHDT,142.96,T*0D
!AIVDM,1,1,,A,35MvOV0000o?S;bK2jtuGDqd20qi,0*46
$GPGGA,214655.00,4716.79383,N,12224.01528,W,2,10,0.8,3.4,M,-18.7,M,6.0,0131*71
$GPRMC,214655.00,A,4716.79383,N,12224.01528,W,0.05,278.16,250819,15.2,E,D*16
!AIVDM,1,1,,B,B52PEi@0?ukfE`6iAhAMGwsUoP06,0*5B
!AIVDM,1,1,,A,?03OwpjGaw?hD00,2*78
!AIVDM,1,1,,A,?03OwpiGcv@0D00,2*5F
$GPHDT,142.91,T*0A
!AIVDM,1,1,,B,?03OwpQGcfkpD00,2*1F
$GPGGA,214656.00,4716.79383,N,12224.01528,W,2,10,0.8,3.4,M,-18.7,M,7.0,0131*73
!AIVDM,1,1,,B,ENkb9MI8:SRb@9WbW2@:9V@:0h@;Wma9=Tjvh00003vP000,2*46
$GPRMC,214656.00,A,4716.79383,N,12224.01528,W,0.09,155.46,250819,15.2,E,D*10
!AIVDM,1,1,,A,15NBpm0OiWo?Fa8K5mMceaoh2D0W,0*12
!AIVDM,1,1,,A,H52P0th@UHE9<Ttp00000000000,2*6A
!AIVDM,1,1,,A,ENkb9Ta8:SRb@9WbW2@:9V@9Sh@;Wdo;=`e>800003vP000,2*32
$GPHDT,142.84,T*0E
$GPGGA,214657.00,4716.79383,N,12224.01529,W,2,10,0.8,3.4,M,-18.7,M,7.0,0131*73
!AIVDM,1,1,,A,H5NMwC0HDhhuM<PU00000000000,2*63
$GPGNS,214657.00,4716.79383,N,12224.01529,W,D,10,0.8,3.4,-18.7,7.0,0131*1E
!AIVDM,1,1,,B,ENkb9MI8:SRb@9WbW2@:9V@:0h@;Wma9=Tjvh00003vP000,2*46
$GPZDA,214657.00,25,08,2019,00,00*60
$GPRMC,214657.00,A,4716.79383,N,12224.01529,W,0.06,310.51,250819,15.2,E,D*1A
$GPGSA,M,3,08,10,13,15,16,20,21,26,27,29,,,1.3,0.8,1.0*36
!AIVDM,1,1,,A,35O`pP5P00o?`r>K3V>v4?wj2Djb,0*38
$GPHDT,142.82,T*08
!AIVDM,1,1,,A,34QjLb0028o?cHRK?riDKkOj0Pm0,0*04
!AIVDM,1,1,,B,35MvOV0000o?S;bK2jtu<4qj2000,0*58
!AIVDM,1,1,,B,15NcIU?000G?v8PK?@FtPjgl0<22,0*42
$GPGGA,214658.00,4716.79383,N,12224.01529,W,2,10,0.8,3.4,M,-18.7,M,7.0,0131*7C
$GPRMC,214658.00,A,4716.79383,N,12224.01529,W,0.16,128.36,250819,15.2,E,D*1C
!AIVDM,2,1,2,A,55Pm;pp2>atmM@DB2208Dhj0nr1<PTl4@622221R6`:<36=c0?CQEl3lU;83,0*4D
!AIVDM,2,2,2,A,l`888888880,2*2A
$GPHDT,142.87,T*0D
$GPGGA,214659.00,4716.79383,N,12224.01528,W,2,10,0.8,3.4,M,-18.7,M,4.0,0131*7F
$GPRMC,214659.00,A,4716.79383,N,12224.01528,W,0.03,43.51,250819,15.2,E,D*25
!AIVDM,1,1,,A,403Ot`Qv><mfso@7;@K?fhg02800,0*53
$GPHDT,142.84,T*0E
$GPGGA,214700.00,4716.79383,N,12224.01528,W,2,10,0.8,3.4,M,-18.7,M,5.0,0131*73
!AIVDM,1,1,,B,35NBpm0OiWo?FUdK5m`;h9r021vh,0*12
!AIVDM,1,1,,A,B52b:rh0;Ekn>L6iDMIPGwP5CP06,0*17
!AIVDM,1,1,,B,ENkb9Ta8:SRb@9WbW2@:9V@9Sh@;Wdo;=`e>800003vP000,2*31
$GPRMC,214700.00,A,4716.79383,N,12224.01528,W,0.12,340.49,250819,15.2,E,D*11
!AIVDM,1,1,,B,15NHVu`P0AG?Bl:K3r<Tb?v20H0G,0*5D
!AIVDM,1,1,,A,ENkb9MI8:SRb@9WbW2@:9V@:0h@;Wma9=Tjvh00003vP000,2*45
!AIVDM,1,1,,A,403Owpiv><mg0o=sj:K=Bk?02H0N,0*5B
!AIVDM,1,1,,B,403Owpiv><mg0o=sj:K=Bk?02H0P,0*46
!AIVDM,1,1,,A,B5O2b=P005kem`6iEhas1005CP06,0*64
!AIVDM,1,1,,A,403OwpAv><mg0o?l2JK7I2?020S:,0*71
!AIVDM,1,1,,A,403OwpQv><mg0G?:J0K4KvO02<1h,0*14
!AIVDM,1,1,,B,403OwpAv><mg0o?l2JK7I2?020S:,0*72
!AIVDM,1,1,,B,403OwpQv><mg0G?:J0K4KvO02<1h,0*17
$GPHDT,142.94,T*0F
$GPGGA,214701.00,4716.79384,N,12224.01528,W,2,10,0.8,3.4,M,-18.7,M,6.0,0131*76
!AIVDM,1,1,,A,B5MtTD000ukmtJ6hoQqhkwPUoP06,0*5C
$GPRMC,214701.00,A,4716.79384,N,12224.01528,W,0.08,13.55,250819,15.2,E,D*24
!AIVDM,1,1,,B,ENkb9Ta8:SRb@9WbW2@:9V@9Sh@;Wdo;=`e>800003vP000,2*31
!AIVDM,1,1,,A,D03Owph11N>6;8ffp00Nfp0,2*1E
!AIVDM,1,1,,B,D03OwpP1UN>6;TfGL00Nfp0,2*30
!AIVDM,1,1,,A,D03Owp@1UN>6;Dffp00Nfp0,2*2E
!AIVDM,1,1,,A,D03Ovjh29N>6;PfGL00Nfp0,2*7B
!AIVDM,1,1,,B,D03Owph?1N>6:pffp00Nfp0,2*5A
!AIVDM,1,1,,A,D03OwpP?UN>6;4fGL00Nfp0,2*5D
!AIVDM,1,1,,B,D03Owp@?UN>6;4ffp00Nfp0,2*53
!AIVDM,1,1,,A,15MiRi0P00G?S1jK2Q@LVgv40<0i,0*2F
!AIVDM,1,1,,A,15NL:U501co?;P2K4lUh;P<400T7,0*3F
$GPHDT,142.97,T*0C
!AIVDM,1,1,,B,15O1II8P00G?RwjK2<H07wv22@1?,0*45
$GPGGA,214702.00,4716.79384,N,12224.01527,W,2,10,0.8,3.4,M,-18.7,M,7.0,0131*7B
!AIVDM,1,1,,A,403Ot`1v><mg2o=sdpK=Bkw0281F,0*67
$GPGNS,214702.00,4716.79384,N,12224.01527,W,D,10,0.8,3.4,-18.7,7.0,0131*16
$GPZDA,214702.00,25,08,2019,00,00*61
!AIVDM,1,1,,B,15Mv<C000To?dujK3I5TA3F406bt,0*6A
$GPRMC,214702.00,A,4716.79384,N,12224.01527,W,0.10,71.32,250819,15.2,E,D*24
$GPGSA,M,3,08,10,13,15,16,20,21,26,27,29,,,1.3,0.8,1.0*36
!AIVDM,1,1,,A,15MlHcP000G?awrK3@LsJ4>6281i,0*77
$GPHDT,143.04,T*07
!AIVDM,1,1,,A,B52aBeh0IUkhPc6ht343KwQ5kP06,0*2A
$GPGGA,214703.00,4716.79385,N,12224.01527,W,2,10,0.8,3.4,M,-18.7,M,7.0,0131*7B
$GPRMC,214703.00,A,4716.79385,N,12224.01527,W,0.12,47.79,250819,15.2,E,D*2C
!AIVDM,1,1,,A,H5NVkjQ0P4q@tn2222222222220,2*5E
!AIVDM,1,1,,A,35NBpm0OiWo?FQ<K5moKlav6211P,0*13
!AIVDM,1,1,,A,15MvdQP00TG?e9lK3HdDB98800SW,0*0F
!AIVDM,1,1,,B,35MvOV0000o?S;bK2jtuGTp6216i,0*40
$GPHDT,143.09,T*0A
$GPGGA,214704.00,4716.79385,N,12224.01527,W,2,10,0.8,3.4,M,-18.7,M,7.0,0131*7C
!AIVDM,1,1,,B,ENkb9MI8:SRb@9WbW2@:9V@:0h@;Wma9=Tjvh00003vP000,2*46
$GPRMC,214704.00,A,4716.79385,N,12224.01527,W,0.10,259.00,250819,15.2,E,D*1A
!AIVDM,1,1,,A,ENkb9Ta8:SRb@9WbW2@:9V@9Sh@;Wdo;=`e>800003vP000,2*32
$GPHDT,143.16,T*04
$GPGGA,214705.00,4716.79385,N,12224.01526,W,2,10,0.8,3.4,M,-18.7,M,4.0,0131*7F
$GPRMC,214705.00,A,4716.79385,N,12224.01526,W,0.15,308.95,250819,15.2,E,D*16
!AIVDM,1,1,,B,ENkb9MI8:SRb@9WbW2@:9V@:0h@;Wma9=Tjvh00003vP000,2*46
!AIVDM,1,1,,B,H5MtTD4TC=D6DIJG11jpjh28A440,0*7E
$GPHDT,143.21,T*00
!AIVDM,1,1,,B,35M@Fj5000o?L8rK3>We3CN<2DUJ,0*4E
$GPGGA,214706.00,4716.79386,N,12224.01526,W,2,10,0.8,3.4,M,-18.7,M,5.0,0131*7E
!AIVDM,1,1,,A,15NcIU?000G?v8tK?@F2cjf>06bt,0*5F
$GPRMC,214706.00,A,4716.79386,N,12224.01526,W,0.07,312.91,250819,15.2,E,D*1A
!AIVDM,1,1,,B,B5O0`VP00=keFiViGrs@gwSUWP06,0*79
$GPHDT,143.30,T*00
$GPGGA,214707.00,4716.79386,N,12224.01526,W,2,10,0.8,3.4,M,-18.7,M,6.0,0131*7C
!AIVDM,1,1,,B,15NBpm0OiWo?FMlK5n3;oJ4>20RQ,0*70
$GPGNS,214707.00,4716.79386,N,12224.01526,W,D,10,0.8,3.4,-18.7,6.0,0131*11
!AIVDM,1,1,,A,H52P0tlUCBD5eI700000000p5440,0*5A
!AIVDM,1,1,,A,H5NVkjTU1=30000G48nkqh0`5220,0*7E
$GPZDA,214707.00,25,08,2019,00,00*64
!AIVDM,1,1,,A,35MvOV0000o?S;bK2jtuS4p>2000,0*61
$GPRMC,214707.00,A,4716.79386,N,12224.01526,W,0.11,327.40,250819,15.2,E,D*16
$GPGSA,M,3,08,10,13,15,16,20,21,26,27,29,,,1.3,0.8,1.0*36
!AIVDM,1,1,,A,35MvOV0000o?S;bK2jtuS4p>2000,0*61
$GPHDT,143.37,T*07
!AIVDM,1,1,,A,H5NMwC4UCD=5k24G46pjlp1@?430,0*55
$GPGGA,214708.00,4716.79386,N,12224.01525,W,2,10,0.8,3.4,M,-18.7,M,7.0,0131*71
!AIVDM,1,1,,B,ENkb9Ta8:SRb@9WbW2@:9V@9Sh@;Wdo;=`e>800003vP000,2*31
$GPRMC,214708.00,A,4716.79386,N,12224.01525,W,0.19,336.62,250819,15.2,E,D*12
!AIVDM,1,1,,A,ENkb9MI8:SRb@9WbW2@:9V@:0h@;Wma9=Tjvh00003vP000,2*45
$GPHDT,143.34,T*04
!AIVDM,1,1,,B,B52M6Kh00=kqMs6i0RWQ3wTUoP06,0*66
$GPGGA,214709.00,4716.79386,N,12224.01525,W,2,10,0.8,3.4,M,-18.7,M,7.0,0131*70
$GPRMC,214709.00,A,4716.79386,N,12224.01525,W,0.06,261.24,250819,15.2,E,D*1C
!AIVDM,1,1,,B,ENkb9Ta8:SRb@9WbW2@:9V@9Sh@;Wdo;=`e>800003vP000,2*31
!AIVDM,1,1,,A,15NHVu`P?w<tSF0l4Q@>4?wp085o,0*3B
!AIVDM,1,1,,B,403Ot`Qv><mg9o@7;DK?fgw026bt,0*18
$GPHDT,143.25,T*04
$GPGGA,214710.00,4716.79387,N,12224.01526,W,2,10,0.8,3.4,M,-18.7,M,7.0,0131*7A
$GPRMC,214710.00,A,4716.79387,N,12224.01526,W,0.05,57.08,250819,15.2,E,D*2C
!AIVDM,1,1,,A,35NBpm0OiWo?FILK5nCssr8D21s0,0*7E
!AIVDM,1,1,,B,15Mi>JP000G?S48K2Q<uM:rD00RG,0*03
$GPHDT,143.24,T*05
$GPGGA,214711.00,4716.79387,N,12224.01525,W,2,10,0.8,3.4,M,-18.7,M,4.0,0131*7B
!AIVDM,1,1,,B,35MvOV0000o?S;bK2jtuRlpD20s0,0*02
$GPRMC,214711.00,A,4716.79387,N,12224.01525,W,0.12,42.12,250819,15.2,E,D*27
!AIVDM,1,1,,A,15O1II8P00G?RwVK2<Gh3?vF26bt,0*7B
!AIVDM,1,1,,A,14QjLb0028o?cg8K?quTIkNF0PSD,0*29
!AIVDM,1,1,,B,15MlHcP000G?awpK3@Kc5l>H286o,0*39
!AIVDM,1,1,,B,15NL:U501co?;Q8K4mh@:h<H0<0u,0*4C
!AIVDM,1,1,,B,15MiRi0P01G?S1`K2QB<R?vH086q,0*6F
$GPHDT,143.29,T*08
$GPGGA,214712.00,4716.79388,N,12224.01525,W,2,10,0.8,3.4,M,-18.7,M,5.0,0131*76
!AIVDM,1,1,,B,403Ot`1v><mg<o=se>K=Bmg0287=,0*4E
!AIVDM,1,1,,B,ENkb9MI8:SRb@9WbW2@:9V@:0h@;Wma9=Tjvh00003vP000,2*46
$GPGNS,214712.00,4716.79388,N,12224.01525,W,D,10,0.8,3.4,-18.7,5.0,0131*1B
$GPZDA,214712.00,25,08,2019,00,00*60
!AIVDM,1,1,,A,15Mv<C000To?e2<K3HtlAkFH087E,0*4F
$GPRMC,214712.00,A,4716.79388,N,12224.01525,W,0.13,305.64,250819,15.2,E,D*1B
$GPGSA,M,3,08,10,13,15,16,20,21,26,27,29,,,1.3,0.8,1.0*36
!AIVDM,1,1,,A,ENkb9Ta8:SRb@9WbW2@:9V@9Sh@;Wdo;=`e>800003vP000,2*32
$GPHDT,143.31,T*01
$GPGGA,214713.00,4716.79387,N,12224.01525,W,2,10,0.8,3.4,M,-18.7,M,6.0,0131*7B
$GPRMC,214713.00,A,4716.79387,N,12224.01525,W,0.05,123.25,250819,15.2,E,D*11
!AIVDM,1,1,,B,15MvdQP00TG?e=hK3HTTBa8J0D0v,0*30
!AIVDM,1,1,,B,ENkb9MI8:SRb@9WbW2@:9V@:0h@;Wma9=Tjvh00003vP000,2*46
!AIVDM,1,1,,B,35NBpm0OiVo?FF>K5nPsvr<J211@,0*2F
$GPHDT,143.25,T*04
$GPGGA,214714.00,4716.79387,N,12224.01524,W,2,10,0.8,3.4,M,-18.7,M,7.0,0131*7C
$GPRMC,214714.00,A,4716.79387,N,12224.01524,W,0.04,110.71,250819,15.2,E,D*17
!AIVDM,1,1,,A,35MvOV0000o?S;bK2jtuTlpL20r1,0*0F
$GPHDT,143.16,T*04
$GPGGA,214715.00,4716.79387,N,12224.01524,W,2,10,0.8,3.4,M,-18.7,M,7.0,0131*7D
$GPRMC,214715.00,A,4716.79387,N,12224.01524,W,0.18,356.59,250819,15.2,E,D*11
$GPHDT,143.07,T*04
$GPGGA,214716.00,4716.79387,N,12224.01524,W,2,10,0.8,3.4,M,-18.7,M,7.0,0131*7E
!AIVDM,1,1,,B,ENkb9Ta8:SRb@9WbW2@:9V@9Sh@;Wdo;=`e>800003vP000,2*31
$GPRMC,214716.00,A,4716.79387,N,12224.01524,W,0.08,231.12,250819,15.2,E,D*1C
!AIVDM,1,1,,A,ENkb9MI8:SRb@9WbW2@:9V@:0h@;Wma9=Tjvh00003vP000,2*45
$GPHDT,142.98,T*03
$GPGGA,214717.00,4716.79386,N,12224.01524,W,2,10,0.8,3.4,M,-18.7,M,4.0,0131*7D
$GPGNS,214717.00,4716.79386,N,12224.01524,W,D,10,0.8,3.4,-18.7,4.0,0131*10
!AIVDM,1,1,,B,ENkb9Ta8:SRb@9WbW2@:9V@9Sh@;Wdo;=`e>800003vP000,2*31
!AIVDM,1,1,,A,15NBpm0OiWo?FB4K5njL2r@R28:=,0*7B
$GPZDA,214717.00,25,08,2019,00,00*65
$GPRMC,214717.00,A,4716.79386,N,12224.01524,W,0.10,53.76,250819,15.2,E,D*21
!AIVDM,1,1,,B,35MvOV0000o?S;bK2jtuJTpR2000,0*77
$GPGSA,M,3,08,10,13,15,16,20,21,26,27,29,,,1.3,0.8,1.0*36
$GPHDT,142.97,T*0C
$GPGGA,214718.00,4716.79387,N,12224.01523,W,2,10,0.8,3.4,M,-18.7,M,5.0,0131*75
$GPRMC,214718.00,A,4716.79387,N,12224.01523,W,0.10,211.10,250819,15.2,E,D*1C
!AIVDM,1,1,,B,B5NSnTP00=kk56Vi5RwQ3wa5oP06,0*4C
!AIVDM,1,1,,B,B52a?ch005kpJ`6hc91skwa5CP06,0*2A
$GPHDT,143.04,T*07
$GPGGA,214719.00,4716.79387,N,12224.01523,W,2,10,0.8,3.4,M,-18.7,M,6.0,0131*77
$GPRMC,214719.00,A,4716.79387,N,12224.01523,W,0.22,163.11,250819,15.2,E,D*1B
!AIVDM,1,1,,B,15NHVu`P?w<tSF0l4Q@>4?wp08;O,0*16
!AIVDM,1,1,,A,?03OwpiGgfb@D00,2*19
!AIVDM,1,1,,A,403Ot`Qv><mgCo@7;NK?ffw028;f,0*2F
$GPHDT,143.05,T*06
$GPGGA,214720.00,4716.79387,N,12224.01523,W,2,10,0.8,3.4,M,-18.7,M,7.0,0131*7C
!AIVDM,1,1,,B,ENkb9MI8:SRb@9WbW2@:9V@:0h@;Wma9=Tjvh00003vP000,2*46
$GPRMC,214720.00,A,4716.79387,N,12224.01523,W,0.02,346.79,250819,15.2,E,D*18
!AIVDM,1,1,,A,H5MnKF4UG5CD=1BG41omoh0`:330,0*32
!AIVDM,1,1,,B,15O1II8P00G?RwJK2<GP@?v`2@<4,0*61
!AIVDM,1,1,,B,35NBpm0OiWo?F?2K5nwt6:D`21s0,0*13
!AIVDM,1,1,,A,ENkb9Ta8:SRb@9WbW2@:9V@9Sh@;Wdo;=`e>800003vP000,2*32
!AIVDM,1,1,,A,15Mi>JP000G?S4LK2Q:c9Jr`0<0c,0*0E
!AIVDM,1,1,,A,403Owpiv><mgDo=siRK=BeO02H<<,0*44
!AIVDM,1,1,,B,403Owpiv><mgDo=siRK=BeO02H<>,0*45
!AIVDM,1,1,,A,403OwpAv><mgDo?l2>K7Hvw020S:,0*7C
!AIVDM,1,1,,B,35Pm;pm2P0o?j>2K@@JM?P0`0Dlb,0*55
!AIVDM,1,1,,A,403OwpQv><mgDG?:EtK4L;700<1h,0*1B
!AIVDM,1,1,,B,403OwpAv><mgDo?l2>K7Hvw020S:,0*7F
!AIVDM,1,1,,A,403Ovjiv><mgDo?upnK>h4?026bt,0*1E
!AIVDM,1,1,,B,403OwpQv><mgDG?:EtK4L;700<1h,0*18
$GPHDT,143.08,T*0B
$GPGGA,214721.00,4716.79387,N,12224.01522,W,2,10,0.8,3.4,M,-18.7,M,7.0,0131*7C
!AIVDM,1,1,,A,35MvOV0000o?S;bK2jtuBlp`0w@,0*41
$GPRMC,214721.00,A,4716.79387,N,12224.01522,W,0.07,141.34,250819,15.2,E,D*11
!AIVDM,1,1,,B,ENkb9MI8:SRb@9WbW2@:9V@:0h@;Wma9=Tjvh00003vP000,2*46
!AIVDM,1,1,,A,D03OwpiNiN>5L@ffqMhNfp0,2*10
!AIVDM,1,1,,A,D03OwpAOEN>5LLffqMhNfp0,2*19
!AIVDM,1,1,,B,D03OwpQOEN>5LdfGMMhNfp0,2*3F
!AIVDM,1,1,,A,D03OvjiOqN>5L`fGMMhNfp0,2*2F
!AIVDM,1,1,,B,D03OwpidiN>5L0ffqMhNfp0,2*49
!AIVDM,1,1,,A,D03OwpQeEN>5L<fGMMhNfp0,2*4E
!AIVDM,1,1,,B,D03OwpAeEN>5L<ffqMhNfp0,2*40
!AIVDM,1,1,,B,B52Q3Sh00=kpkV6hTsHMkwbUoP06,0*4C
!AIVDM,1,1,,A,15NL:U501co?;R>K4nr@;@<d0<0u,0*56
!AIVDM,1,1,,B,15Mv<C000To?e66K3Hm4BCHb08<q,0*33
$GPHDT,143.04,T*07
$GPGGA,214722.00,4716.79388,N,12224.01523,W,2,10,0.8,3.4,M,-18.7,M,7.0,0131*71
!AIVDM,1,1,,A,403Ot`1v><mgFo=seHK=Bm?028=4,0*1A
$GPGNS,214722.00,4716.79388,N,12224.01523,W,D,10,0.8,3.4,-18.7,7.0,0131*1C
$GPZDA,214722.00,25,08,2019,00,00*63
!AIVDM,1,1,,A,B52PEi@0?ukfI9ViAJI@Cwc5oP06,0*3E
$GPRMC,214722.00,A,4716.79388,N,12224.01523,W,0.10,121.88,250819,15.2,E,D*1B
$GPGSA,M,3,08,10,13,15,16,20,21,26,27,29,,,1.3,0.8,1.0*36
!AIVDM,1,1,,A,15MiRi0P00G?S1LK2QBtTOvh06bt,0*00
!AIVDM,1,1,,B,B5O262P005krtvVhowPQwwcUSP06,0*41
!AIVDM,1,1,,A,B52aJe@005kpnq6hT>SGswc5oP06,0*17
$GPHDT,142.98,T*03
!AIVDM,1,1,,A,15MlHcP000G?b06K3@Kbn4>f2D0Q,0*50
$GPGGA,214723.00,4716.79388,N,12224.01522,W,2,10,0.8,3.4,M,-18.7,M,4.0,0131*72
$GPRMC,214723.00,A,4716.79388,N,12224.01522,W,0.12,154.94,250819,15.2,E,D*16
!AIVDM,1,1,,A,35NBpm0OiWo?F<4K5o=d9:Ff20w@,0*30
$GPHDT,142.97,T*0C
!AIVDM,1,1,,A,15MvdQP00SG?eBTK3HJlBq8h0H>8,0*2F
$GPGGA,214724.00,4716.79387,N,12224.01522,W,2,10,0.8,3.4,M,-18.7,M,5.0,0131*7B
!AIVDM,1,1,,B,ENkb9Ta8:SRb@9WbW2@:9V@9Sh@;Wdo;=`e>800003vP000,2*31
$GPRMC,214724.00,A,4716.79387,N,12224.01522,W,0.19,23.44,250819,15.2,E,D*29
!AIVDM,1,1,,A,B52`wM000EkpbuVhWa0ecwd5oP06,0*61
!AIVDM,1,1,,B,35MvOV0000o?S;bK2jtu3lph2101,0*0C
!AIVDM,1,1,,A,ENkb9MI8:SRb@9WbW2@:9V@:0h@;Wma9=Tjvh00003vP000,2*45
$GPHDT,143.01,T*02
$GPGGA,214725.00,4716.79388,N,12224.01523,W,2,10,0.8,3.4,M,-18.7,M,6.0,0131*77
$GPRMC,214725.00,A,4716.79388,N,12224.01523,W,0.04,347.89,250819,15.2,E,D*1A
!AIVDM,1,1,,B,ENkb9Ta8:SRb@9WbW2@:9V@9Sh@;Wdo;=`e>800003vP000,2*31
!AIVDM,1,1,,A,H5NSFg1@TlF0uEB1LE=@0000000,2*5D
!AIVDM,1,1,,A,H5NSFg4UF5C@5B0G47ponn1@7050,0*19
!AIVDM,1,1,,B,B5NKuW005UkmqkVi;dlRCwdUkP06,0*6F
!AIVDM,1,1,,A,?03Owpi@`Ej<D00,2*4E
!AIVDM,1,1,,A,?03OwpjG`p2@D00,2*5B
!AIVDM,1,1,,A,?03OwpiGWRl`D00,2*33
!AIVDM,1,1,,A,?03OwpiGWkR`D00,2*34
$GPHDT,143.03,T*00
!AIVDM,1,1,,B,?03OwpiGOWmhD00,2*24
$GPGGA,214726.00,4716.79387,N,12224.01522,W,2,10,0.8,3.4,M,-18.7,M,7.0,0131*7B
$GPRMC,214726.00,A,4716.79387,N,12224.01522,W,0.15,141.52,250819,15.2,E,D*15
!AIVDM,1,1,,B,15NBpm0OiWo?F9:K5oKt;rJl28?e,0*75
!AIVDM,1,1,,A,H5NWNf1LThB0AD<d00000000000,2*36
$GPHDT,143.05,T*06
$GPGGA,214727.00,4716.79387,N,12224.01521,W,2,10,0.8,3.4,M,-18.7,M,7.0,0131*79
$GPGNS,214727.00,4716.79387,N,12224.01521,W,D,10,0.8,3.4,-18.7,7.0,0131*14
$GPZDA,214727.00,25,08,2019,00,00*66
$GPRMC,214727.00,A,4716.79387,N,12224.01521,W,0.17,89.06,250819,15.2,E,D*21
$GPGSA,M,3,08,10,13,15,16,20,21,26,27,29,,,1.3,0.8,1.0*36
!AIVDM,1,1,,A,35MvOV0000o?S;bK2jtu6Dpn2000,0*24
$GPHDT,143.08,T*0B
$GPGGA,214728.00,4716.79388,N,12224.01521,W,2,10,0.8,3.4,M,-18.7,M,7.0,0131*79
!AIVDM,1,1,,B,ENkb9MI8:SRb@9WbW2@:9V@:0h@;Wma9=Tjvh00003vP000,2*46
$GPRMC,214728.00,A,4716.79388,N,12224.01521,W,0.06,314.08,250819,15.2,E,D*18
!AIVDM,1,1,,B,3815KMm000G?mINK2vWP79h<0Dg:,0*18
!AIVDM,1,1,,B,B5NWkRP00=kpl<6hSbR0wwf5CP06,0*1F
!AIVDM,1,1,,A,ENkb9Ta8:SRb@9WbW2@:9V@9Sh@;Wdo;=`e>800003vP000,2*32
!AIVDM,1,1,,B,B52b:rh0:Ukn@06iD99VKwf5CP06,0*3F
!AIVDM,1,1,,B,B5MtTD000ekmt`6hoR=aSwf5oP06,0*4D
$GPHDT,143.02,T*01
$GPGGA,214729.00,4716.79387,N,12224.01521,W,2,10,0.8,3.4,M,-18.7,M,4.0,0131*74
$GPRMC,214729.00,A,4716.79387,N,12224.01521,W,0.12,130.19,250819,15.2,E,D*17
!AIVDM,1,1,,B,ENkb9MI8:SRb@9WbW2@:9V@:0h@;Wma9=Tjvh00003vP000,2*46
!AIVDM,1,1,,A,15NHVu`P?w<tSF0l4Q@>4?wp0D1H,0*64
!AIVDM,1,1,,B,15Mi>JP000G?S4RK2Q:KvJrt0D0d,0*1F
$GPHDT,142.94,T*0F
$GPGGA,214730.00,4716.79388,N,12224.01521,W,2,10,0.8,3.4,M,-18.7,M,5.0,0131*72
$GPRMC,214730.00,A,4716.79388,N,12224.01521,W,0.15,340.75,250819,15.2,E,D*18
!AIVDM,1,1,,A,35NBpm0OiWo?F5DK5ogd?rNt21u0,0*34
!AIVDM,2,1,3,A,55NBpm400001L@CWC71HU8LTpT61H0000000000t1PJ44th00whDSmCQ85PD,0*24
!AIVDM,2,2,3,A,j3kP0000000,2*45
!AIVDM,1,1,,B,H5NaV<1<<uAB0I8DD0000000000,2*19
$GPHDT,142.93,T*08
$GPGGA,214731.00,4716.79388,N,12224.01520,W,2,10,0.8,3.4,M,-18.7,M,6.0,0131*71
!AIVDM,1,1,,B,15MiRi0P02G?S1JK2QAdQgw006bt,0*60
$GPRMC,214731.00,A,4716.79388,N,12224.01520,W,0.06,259.94,250819,15.2,E,D*1C
!AIVDM,1,1,,B,35MvOV0000o?S;bK2jtuDlpv20qP,0*44
!AIVDM,1,1,,A,?03OwpiGbIk@D00,2*3A
!AIVDM,1,1,,A,15O1II8P00G?Rw>K2<Hh@?vv2HBe,0*10
!AIVDM,1,1,,B,?03OwpiGhT8hD00,2*55
$GPHDT,142.87,T*0D
$GPGGA,214732.00,4716.79388,N,12224.01520,W,2,10,0.8,3.4,M,-18.7,M,7.0,0131*73
!AIVDM,1,1,,B,403Ot`1v><mgPo=sf:K=Bgw028Bs,0*04
!AIVDM,1,1,,B,ENkb9Ta8:SRb@9WbW2@:9V@9Sh@;Wdo;=`e>800003vP000,2*31
$GPGNS,214732.00,4716.79388,N,12224.01520,W,D,10,0.8,3.4,-18.7,7.0,0131*1E
$GPZDA,214732.00,25,08,2019,00,00*62
!AIVDM,1,1,,A,15Mv<C000To?e:vK3HclAkI000Rh,0*2D
$GPRMC,214732.00,A,4716.79388,N,12224.01520,W,0.08,184.26,250819,15.2,E,D*1B
!AIVDM,1,1,,B,15NL:U501co?;SNK4p<P;@=20<0u,0*33
$GPGSA,M,3,08,10,13,15,16,20,21,26,27,29,,,1.3,0.8,1.0*36
!AIVDM,1,1,,A,ENkb9MI8:SRb@9WbW2@:9V@:0h@;Wma9=Tjvh00003vP000,2*45
!AIVDM,1,1,,B,15MlHcP000G?b0tK3@MJsD?22<0Q,0*7F
$GPHDT,142.93,T*08
$GPGGA,214733.00,4716.79388,N,12224.01520,W,2,10,0.8,3.4,M,-18.7,M,7.0,0131*72
!AIVDM,1,1,,B,B52aBeh0I5khQ86htqKOowhUkP06,0*2F
$GPRMC,214733.00,A,4716.79388,N,12224.01520,W,0.12,94.02,250819,15.2,E,D*27
!AIVDM,1,1,,A,H52aoS0<ttj0d5@000000000000,2*71
!AIVDM,1,1,,B,15MvdQP00TG?eFtK3HB4C9;400Sh,0*0C
!AIVDM,1,1,,B,35NBpm0OiWo?F2NK5ovLB:S220t@,0*1D
!AIVDM,1,1,,B,B52alth005kru<6hp>81wwhUCP06,0*25
$GPHDT,142.93,T*08
$GPGGA,214734.00,4716.79389,N,12224.01519,W,2,10,0.8,3.3,M,-18.7,M,7.0,0131*79
$GPRMC,214734.00,A,4716.79389,N,12224.01519,W,0.14,102.22,250819,15.2,E,D*11
!AIVDM,1,1,,B,H5NveQ1<D60Tpr1@PTpM<000000,2*3B
$GPHDT,142.95,T*0E
$GPGGA,214735.00,4716.79389,N,12224.01518,W,2,10,0.8,3.3,M,-18.7,M,4.0,0131*7A
$GPRMC,214735.00,A,4716.79389,N,12224.01518,W,0.07,271.15,250819,15.2,E,D*10
$GPHDT,142.86,T*0C
$GPGGA,214736.00,4716.79389,N,12224.01519,W,2,10,0.8,3.4,M,-18.7,M,5.0,0131*7E
!AIVDM,1,1,,B,ENkb9MI8:SRb@9WbW2@:9V@:0h@;Wma9=Tjvh00003vP000,2*46
$GPRMC,214736.00,A,4716.79389,N,12224.01519,W,0.04,323.86,250819,15.2,E,D*1D
!AIVDM,1,1,,B,H52c0f0A8D4m@TlD00000000000,2*05
!AIVDM,1,1,,B,15NcIU?000G?v9:K?@Het2e:00Rw,0*37
!AIVDM,1,1,,A,ENkb9Ta8:SRb@9WbW2@:9V@9Sh@;Wdo;=`e>800003vP000,2*32
!AIVDM,1,1,,A,35MvlR5P00G?S2@K2l110ww80Dmr,0*6F
!AIVDM,1,1,,B,H52c0f4U71B=9>0G>lmok0106230,0*3A
$GPHDT,142.79,T*0C
!AIVDM,1,1,,A,B52P6K@00=kp`VVh`Q=lkwj5oP06,0*3A
$GPGGA,214737.00,4716.79389,N,12224.01518,W,2,10,0.8,3.4,M,-18.7,M,6.0,0131*7D
$GPGNS,214737.00,4716.79389,N,12224.01518,W,D,10,0.8,3.4,-18.7,6.0,0131*10
!AIVDM,1,1,,B,ENkb9MI8:SRb@9WbW2@:9V@:0h@;Wma9=Tjvh00003vP000,2*46
$GPZDA,214737.00,25,08,2019,00,00*67
!AIVDM,1,1,,A,15NBpm0OiWo?EvdK5pC<GbW:26bt,0*5E
$GPRMC,214737.00,A,4716.79389,N,12224.01518,W,0.06,229.66,250819,15.2,E,D*1A
!AIVDM,1,1,,B,35MvOV0000o?S;bK2jtu=4q:2000,0*09
!AIVDM,1,1,,B,35MvOV0000o?S;bK2jtu=4q:2000,0*09
$GPGSA,M,3,08,10,13,15,16,20,21,26,27,29,,,1.3,0.8,1.0*36
$GPHDT,142.74,T*01
$GPGGA,214738.00,4716.79389,N,12224.01518,W,2,10,0.8,3.3,M,-18.7,M,7.0,0131*74
$GPRMC,214738.00,A,4716.79389,N,12224.01518,W,0.14,239.56,250819,15.2,E,D*14
!AIVDM,1,1,,A,H5NWNf4TCBD6<K`G48olnn0p6040,0*64
$GPHDT,142.76,T*03
!AIVDM,2,1,4,B,55M@Fj41hhrELh@j220<50F0TqA8E0TB22222216CHnA=vQW<Am0@kk@H888,0*71
!AIVDM,2,2,4,B,88888888880,2*23
$GPGGA,214739.00,4716.79389,N,12224.01518,W,2,10,0.8,3.4,M,-18.7,M,7.0,0131*72
$GPRMC,214739.00,A,4716.79389,N,12224.01518,W,0.01,20.27,250819,15.2,E,D*2D
$GPHDT,142.78,T*0D
$GPGGA,214740.00,4716.79389,N,12224.01517,W,2,10,0.8,3.3,M,-18.7,M,7.0,0131*74
!AIVDM,1,1,,B,35NBpm0OiWo?EsvK5pRtJrc@21v@,0*65
!AIVDM,1,1,,B,ENkb9Ta8:SRb@9WbW2@:9V@9Sh@;Wdo;=`e>800003vP000,2*31
!AIVDM,1,1,,A,15Mi>JP000G?S4HK2Q=0fbs@06bt,0*47
$GPRMC,214740.00,A,4716.79389,N,12224.01517,W,0.08,61.91,250819,15.2,E,D*2D
!AIVDM,1,1,,B,B5NSIgP05Uki00VhlWhWOwl5kP06,0*05
!AIVDM,1,1,,A,ENkb9MI8:SRb@9WbW2@:9V@:0h@;Wma9=Tjvh00003vP000,2*45
!AIVDM,1,1,,A,403Owpiv><mg`o=shdK=Bfg02HGr,0*49
!AIVDM,1,1,,B,403Owpiv><mg`o=shdK=Bfg02HGt,0*4C
!AIVDM,1,1,,A,403OwpAv><mg`o?l2DK7Hvg020S:,0*32
!AIVDM,1,1,,A,403OwpQv><mg`G?:HJK4L8g02<1g,0*52
!AIVDM,1,1,,B,403OwpAv><mg`o?l2DK7Hvg020S:,0*31
!AIVDM,1,1,,B,403OwpQv><mg`G?:HJK4L8g02<1g,0*51
$GPHDT,142.79,T*0C
!AIVDM,1,1,,B,15O1II8P00G?Rw2K2<I0@?w@2<0F,0*54
$GPGGA,214741.00,4716.79390,N,12224.01517,W,2,10,0.8,3.3,M,-18.7,M,4.0,0131*7E
!AIVDM,1,1,,B,15NHVu`P?w<tSF0l4Q@>4?wp00Rn,0*56
!AIVDM,1,1,,A,35MvOV0000o?S;bK2jtuA4q@20th,0*10
$GPRMC,214741.00,A,4716.79390,N,12224.01517,W,0.03,237.60,250819,15.2,E,D*10
!AIVDM,1,1,,B,ENkb9Ta8:SRb@9WbW2@:9V@9Sh@;Wdo;=`e>800003vP000,2*31
!AIVDM,1,1,,A,D03OwphgqN>4eHffpfpNfp0,2*32
!AIVDM,1,1,,A,D03Owp@hMN>4eTffpfpNfp0,2*35
!AIVDM,1,1,,B,D03OwpPhMN>4elfGLfpNfp0,2*03
!AIVDM,1,1,,B,D03OwphuqN>4e8ffpfpNfp0,2*53
!AIVDM,1,1,,A,D03OwpPvMN>4eDfGLfpNfp0,2*36
!AIVDM,1,1,,B,D03Owp@vMN>4eDffpfpNfp0,2*38
!AIVDM,1,1,,A,15MiRi0P01G?S1NK2Q?tVgwF06bt,0*7B
!AIVDM,1,1,,B,H5NaV<4U>F375`JG49jqji0h>330,0*1B
$GPHDT,142.77,T*02
$GPGGA,214742.00,4716.79389,N,12224.01518,W,2,10,0.8,3.4,M,-18.7,M,5.0,0131*7C
!AIVDM,1,1,,B,15Mv<C000Uo?e>tK3HTDASID0<0r,0*0E
!AIVDM,1,1,,A,403Ot`1v><mgbo=sfNK=BcO028Hj,0*6E
$GPGNS,214742.00,4716.79389,N,12224.01518,W,D,10,0.8,3.4,-18.7,5.0,0131*11
!AIVDM,1,1,,A,15NL:U501co?;TdK4qFP<@=F08Hl,0*70
$GPZDA,214742.00,25,08,2019,00,00*65
$GPRMC,214742.00,A,4716.79389,N,12224.01518,W,0.10,40.44,250819,15.2,E,D*22
$GPGSA,M,3,08,10,13,15,16,20,21,26,27,29,,,1.3,0.8,1.0*36
!AIVDM,1,1,,A,15MlHcP000G?b1NK3@L;2l?F26bt,0*57
$GPHDT,142.78,T*0D
$GPGGA,214743.00,4716.79389,N,12224.01518,W,2,10,0.8,3.4,M,-18.7,M,6.0,0131*7E
$GPRMC,214743.00,A,4716.79389,N,12224.01518,W,0.13,120.03,250819,15.2,E,D*14
!AIVDM,1,1,,A,15MvdQP00TG?eKFK3H9DCa;H08I`,0*05
!AIVDM,1,1,,A,35NBpm0Oi`o?EqFK5pjtN:gF210P,0*43
$GPHDT,142.73,T*06
$GPGGA,214744.00,4716.79389,N,12224.01519,W,2,10,0.8,3.4,M,-18.7,M,7.0,0131*79
!AIVDM,1,1,,B,ENkb9MI8:SRb@9WbW2@:9V@:0h@;Wma9=Tjvh00003vP000,2*46
$GPRMC,214744.00,A,4716.79389,N,12224.01519,W,0.03,247.67,250819,15.2,E,D*13
!AIVDM,1,1,,A,ENkb9Ta8:SRb@9WbW2@:9V@9Sh@;Wdo;=`e>800003vP000,2*32
$GPHDT,142.79,T*0C
$GPGGA,214745.00,4716.79388,N,12224.01520,W,2,10,0.8,3.4,M,-18.7,M,7.0,0131*73
!AIVDM,1,1,,B,35MvOV0000o?S;bK2jtuADqH20q1,0*37
$GPRMC,214745.00,A,4716.79388,N,12224.01520,W,0.14,154.70,250819,15.2,E,D*18
!AIVDM,1,1,,B,ENkb9MI8:SRb@9WbW2@:9V@:0h@;Wma9=Tjvh00003vP000,2*46
!AIVDM,1,1,,A,H52aoS4TC=D6vH?00000001P3120,0*08
$GPHDT,142.90,T*0B
$GPGGA,214746.00,4716.79388,N,12224.01518,W,2,10,0.8,3.4,M,-18.7,M,7.0,0131*7B
$GPRMC,214746.00,A,4716.79388,N,12224.01518,W,0.09,6.91,250819,15.2,E,D*15
!AIVDM,1,1,,A,B5NO2a0005kv8a6hdb?<SwoUWP06,0*06
$GPHDT,142.92,T*09
$GPGGA,214747.00,4716.79389,N,12224.01517,W,2,10,0.8,3.4,M,-18.7,M,4.0,0131*77
!AIVDM,1,1,,B,15NBpm0OiWo?EmtK5q8dQbiN26bt,0*28
$GPGNS,214747.00,4716.79389,N,12224.01517,W,D,10,0.8,3.4,-18.7,4.0,0131*1A
$GPZDA,214747.00,25,08,2019,00,00*60
$GPRMC,214747.00,A,4716.79389,N,12224.01517,W,0.06,126.33,250819,15.2,E,D*1E
$GPGSA,M,3,08,10,13,15,16,20,21,26,27,29,,,1.3,0.8,1.0*36
!AIVDM,1,1,,A,35MvOV0000o?S;`K2jtu5DqN2000,0*04
$GPHDT,143.05,T*06
$GPGGA,214748.00,4716.79388,N,12224.01518,W,2,10,0.8,3.4,M,-18.7,M,5.0,0131*77
!AIVDM,1,1,,B,ENkb9Ta8:SRb@9WbW2@:9V@9Sh@;Wdo;=`e>800003vP000,2*31
$GPRMC,214748.00,A,4716.79388,N,12224.01518,W,0.01,320.77,250819,15.2,E,D*1C
!AIVDM,1,1,,A,ENkb9MI8:SRb@9WbW2@:9V@:0h@;Wma9=Tjvh00003vP000,2*45
$GPHDT,143.28,T*09
$GPGGA,214749.00,4716.79388,N,12224.01518,W,2,10,0.8,3.4,M,-18.7,M,6.0,0131*75
$GPRMC,214749.00,A,4716.79388,N,12224.01518,W,0.06,28.00,250819,15.2,E,D*21
!AIVDM,1,1,,A,15NHVu`P0AG?BtvK3qiDrgwT06bt,0*7C
!AIVDM,1,1,,B,ENkb9Ta8:SRb@9WbW2@:9V@9Sh@;Wdo;=`e>800003vP000,2*31
!AIVDM,1,1,,A,H52P4rh88E8TqT0000000000000,2*29
!AIVDM,1,1,,B,403Ot`Qv><mgio@7;hK?fdg026bt,0*77
$GPHDT,143.31,T*01
$GPGGA,214750.00,4716.79388,N,12224.01517,W,2,10,0.8,3.4,M,-18.7,M,7.0,0131*73
$GPRMC,214750.00,A,4716.79388,N,12224.01517,W,0.24,8.90,250819,15.2,E,D*1D
!AIVDM,1,1,,A,35NBpm0OiWo?EkVK5qHLTbmT21oh,0*58
$GPHDT,143.34,T*04
!AIVDM,1,1,,B,15Mi>JP000G?S4BK2Q?V<:sV0<0d,0*76
$GPGGA,214751.00,4716.79388,N,12224.01517,W,2,10,0.8,3.4,M,-18.7,M,7.0,0131*72
!AIVDM,1,1,,A,15Mv<C000Uo?eBtK3HLDBCIV0@N1,0*29
!AIVDM,1,1,,B,35MvOV0000o?S;bK2jtuH4qT20rh,0*08
!AIVDM,1,1,,B,15MlHcP000G?b1LK3@KK7DA`28N4,0*36
$GPRMC,214751.00,A,4716.79388,N,12224.01517,W,0.16,284.00,250819,15.2,E,D*12
!AIVDM,1,1,,A,15O1II8P00G?Rw<K2<I@@?wV20S5,0*23
$GPHDT,143.53,T*05
$GPGGA,214752.00,4716.79388,N,12224.01518,W,2,10,0.8,3.4,M,-18.7,M,7.0,0131*7E
!AIVDM,1,1,,B,403Ot`1v><mglo=sejK=B`O028Na,0*4A
!AIVDM,1,1,,B,ENkb9MI8:SRb@9WbW2@:9V@:0h@;Wma9=Tjvh00003vP000,2*46
$GPGNS,214752.00,4716.79388,N,12224.01518,W,D,10,0.8,3.4,-18.7,7.0,0131*13
!AIVDM,1,1,,B,15MiRi0P01G?S1tK2Q;dU?wb0D0i,0*14
$GPZDA,214752.00,25,08,2019,00,00*64
!AIVDM,1,1,,B,B5NveQ000=ks2i6hp0SQ3wr1nE2:,0*28
$GPRMC,214752.00,A,4716.79388,N,12224.01518,W,0.02,98.46,250819,15.2,E,D*26
$GPGSA,M,3,08,10,13,15,16,20,21,26,27,29,,,1.3,0.8,1.0*36
!AIVDM,1,1,,A,ENkb9Ta8:SRb@9WbW2@:9V@9Sh@;Wdo;=`e>800003vP000,2*32
!AIVDM,1,1,,B,15NL:U501co?;UhK4rPh;h=b0<0v,0*3E
!AIVDM,2,1,5,A,55O00LP00001L@g?WC@pu8@H`u8B22222222220U1P;334I>N51jAp20DPSl,0*6C
!AIVDM,2,2,5,A,`8888888880,2*79
$GPHDT,143.62,T*07
$GPGGA,214753.00,4716.79388,N,12224.01517,W,2,10,0.8,3.5,M,-18.7,M,4.0,0131*72
!AIVDM,1,1,,B,15MvdQP00TG?eODK3H14Ca;b0L0v,0*49
!AIVDM,1,1,,A,B52P4rh015kv8tVhe<RG7wrUoP06,0*54
$GPRMC,214753.00,A,4716.79388,N,12224.01517,W,0.00,5.21,250819,15.2,E,D*1F
!AIVDM,1,1,,B,ENkb9MI8:SRb@9WbW2@:9V@:0h@;Wma9=Tjvh00003vP000,2*46
!AIVDM,1,1,,B,35NBpm0OiWo?Ei>K5q`dVbob20t0,0*45
!AIVDM,1,1,,A,B5O262P005krtp6hp7<K;ws5SP06,0*31
$GPHDT,143.65,T*00
!AIVDM,1,1,,B,B52NiFP00=kqKo6i0k<IKwrUoP06,0*01
$GPGGA,214754.00,4716.79388,N,12224.01515,W,2,10,0.8,3.5,M,-18.7,M,5.0,0131*76
$GPRMC,214754.00,A,4716.79388,N,12224.01515,W,0.12,353.44,250819,15.2,E,D*1A
$GPHDT,143.56,T*00
!AIVDM,1,1,,A,35MvOV0000o?S;bK2jtuKDqd20pi,0*4B
$GPGGA,214755.00,4716.79389,N,12224.01514,W,2,10,0.8,3.5,M,-18.7,M,6.0,0131*74
$GPRMC,214755.00,A,4716.79389,N,12224.01514,W,0.07,18.65,250819,15.2,E,D*20
$GPHDT,143.49,T*0E
$GPGGA,214756.00,4716.79388,N,12224.01516,W,2,10,0.8,3.5,M,-18.7,M,7.0,0131*75
!AIVDM,1,1,,B,ENkb9Ta8:SRb@9WbW2@:9V@9Sh@;Wdo;=`e>800003vP000,2*31
$GPRMC,214756.00,A,4716.79388,N,12224.01516,W,0.15,240.52,250819,15.2,E,D*18
!AIVDM,1,1,,A,15NBpm0OiWo?EfnK5qqL`:qh2@Q;,0*06
!AIVDM,1,1,,A,ENkb9MI8:SRb@9WbW2@:9V@:0h@;Wma9=Tjvh00003vP000,2*45
!AIVDM,1,1,,B,B52PEi@0@=kfO:6iA7E9cwt5oP06,0*50
$GPHDT,143.33,T*03
$GPGGA,214757.00,4716.79387,N,12224.01517,W,2,10,0.8,3.5,M,-18.7,M,7.0,0131*7A
$GPGNS,214757.00,4716.79387,N,12224.01517,W,D,10,0.8,3.5,-18.7,7.0,0131*17
!AIVDM,1,1,,B,ENkb9Ta8:SRb@9WbW2@:9V@9Sh@;Wdo;=`e>800003vP000,2*31
$GPZDA,214757.00,25,08,2019,00,00*61
!AIVDM,1,1,,B,35MvOV0000o?S;bK2jtu`Dqj2000,0*74
$GPRMC,214757.00,A,4716.79387,N,12224.01517,W,0.05,199.45,250819,15.2,E,D*17
$GPGSA,M,3,08,10,13,15,16,20,21,26,27,29,,,1.3,0.8,1.0*36
$GPHDT,143.36,T*06
$GPGGA,214758.00,4716.79387,N,12224.01517,W,2,10,0.8,3.5,M,-18.7,M,7.0,0131*75
$GPRMC,214758.00,A,4716.79387,N,12224.01517,W,0.09,262.95,250819,15.2,E,D*1E
$GPHDT,143.36,T*06
!AIVDM,1,1,,A,B52b:rh0;EknAT6iCjaQOwuUCP06,0*34
$GPGGA,214759.00,4716.79387,N,12224.01517,W,2,10,0.8,3.5,M,-18.7,M,4.0,0131*77
!AIVDM,1,1,,A,B5MtTD000ukmtfVhoS=RwwuUoP06,0*5D
$GPRMC,214759.00,A,4716.79387,N,12224.01517,W,0.10,260.01,250819,15.2,E,D*18
!AIVDM,1,1,,A,B5MnKF000=kpdIVhW;803wuUoP06,0*43
!AIVDM,1,1,,A,403Ot`Qv><mgso@7;pK?fd?026c0,0*6B
$GPHDT,143.37,T*07
!AIVDM,1,1,,B,35NBpm0OiWo?EdNK5r:tbJr021uh,0*7A
$GPGGA,214800.00,4716.79388,N,12224.01517,W,2,10,0.8,3.5,M,-18.7,M,5.0,0131*7A
!AIVDM,1,1,,B,ENkb9MI8:SRb@9WbW2@:9V@:0h@;Wma9=Tjvh00003vP000,2*46
$GPRMC,214800.00,A,4716.79388,N,12224.01517,W,0.12,90.81,250819,15.2,E,D*23
!AIVDM,1,1,,B,15NHVu`P0@G?Bw8K3qd4`gv20D1I,0*27
!AIVDM,1,1,,A,ENkb9Ta8:SRb@9WbW2@:9V@9Sh@;Wdo;=`e>800003vP000,2*32
!AIVDM,1,1,,A,403Owpiv><mh0o=si8K=B`w02D<;,0*63
!AIVDM,1,1,,B,403Owpiv><mh0o=si8K=B`w02D<;,0*60
!AIVDM,1,1,,A,403OwpAv><mh0o?l2RK7I0g02L2E,0*5E
!AIVDM,1,1,,B,403OwpAv><mh0o?l2RK7I0g02L2E,0*5D
!AIVDM,1,1,,A,403OwpQv><mh0G?:EtK4L;70080T,0*59
!AIVDM,1,1,,B,403OwpQv><mh0G?:EtK4L;70080V,0*58
$GPHDT,143.44,T*03
$GPGGA,214801.00,4716.79388,N,12224.01516,W,2,10,0.8,3.5,M,-18.7,M,6.0,0131*79
!AIVDM,1,1,,A,15Mi>JP000G?S4DK2QA2Bbr20@0g,0*55
!AIVDM,1,1,,A,H52P4rlUCD=5hhG00000001@6320,0*48
$GPRMC,214801.00,A,4716.79388,N,12224.01516,W,0.11,121.90,250819,15.2,E,D*1B
!AIVDM,1,1,,B,ENkb9MI8:SRb@9WbW2@:9V@:0h@;Wma9=Tjvh00003vP000,2*46
!AIVDM,1,1,,A,D03Owph11N>6;8ffp00Nfp0,2*1E
!AIVDM,1,1,,A,D03Owp@1UN>6;Dffp00Nfp0,2*2E
!AIVDM,1,1,,B,D03OwpP1UN>6;TfGL00Nfp0,2*30
!AIVDM,1,1,,B,D03Owph?1N>6:pffp00Nfp0,2*5A
!AIVDM,1,1,,A,D03OwpP?UN>6;4fGL00Nfp0,2*5D
!AIVDM,1,1,,B,D03Owp@?UN>6;4ffp00Nfp0,2*53
!AIVDM,1,1,,A,15MiRi0P01G?S2<K2Q9<SOv4080w,0*45
$GPHDT,143.54,T*02
!AIVDM,1,1,,B,15O1II8P00G?Rw:K2<J0@?v22<0F,0*2C
$GPGGA,214802.00,4716.79388,N,12224.01514,W,2,10,0.8,3.5,M,-18.7,M,7.0,0131*79
!AIVDM,1,1,,A,403Ot`1v><mh2o=se0K=BWg026c0,0*2F
$GPGNS,214802.00,4716.79388,N,12224.01514,W,D,10,0.8,3.5,-18.7,7.0,0131*14
