$GPRMC,214540.00,A,4716.79378,N,12224.01536,W,0.06,356.11,250819,15.2,E,D*13
$GPRMC,214541.00,A,4716.79378,N,12224.01536,W,0.01,25.34,250819,15.2,E,D*25
$GPRMC,214542.00,A,4716.79378,N,12224.01536,W,0.13,323.08,250819,15.2,E,D*1F
$GPRMC,214543.00,A,4716.79378,N,12224.01535,W,0.08,253.35,250819,15.2,E,D*1F
$GPRMC,214544.00,A,4716.79378,N,12224.01535,W,0.05,341.01,250819,15.2,E,D*10
$GPRMC,214545.00,A,4716.79378,N,12224.01535,W,0.09,225.45,250819,15.2,E,D*1E
$GPRMC,214546.00,A,4716.79378,N,12224.01536,W,0.12,219.87,250819,15.2,E,D*15
$GPRMC,214547.00,A,4716.79377,N,12224.01537,W,0.03,199.07,250819,15.2,E,D*19
$GPRMC,214548.00,A,4716.79378,N,12224.01536,W,0.10,332.75,250819,15.2,E,D*1C
$GPRMC,214549.00,A,4716.79378,N,12224.01536,W,0.07,307.05,250819,15.2,E,D*1A
$GPRMC,214550.00,A,4716.79377,N,12224.01537,W,0.11,347.38,250819,15.2,E,D*11
$GPRMC,214551.00,A,4716.79378,N,12224.01537,W,0.06,180.44,250819,15.2,E,D*1B
$GPRMC,214552.00,A,4716.79378,N,12224.01536,W,0.08,186.53,250819,15.2,E,D*17
$GPRMC,214553.00,A,4716.79377,N,12224.01536,W,0.07,78.05,250819,15.2,E,D*25
$GPRMC,214554.00,A,4716.79377,N,12224.01537,W,0.02,218.66,250819,15.2,E,D*17
$GPRMC,214555.00,A,4716.79378,N,12224.01536,W,0.19,176.45,250819,15.2,E,D*18
$GPRMC,214556.00,A,4716.79377,N,12224.01535,W,0.19,269.95,250819,15.2,E,D*17
$GPRMC,214557.00,A,4716.79377,N,12224.01538,W,0.17,344.99,250819,15.2,E,D*17
$GPRMC,214558.00,A,4716.79378,N,12224.01537,W,0.02,233.13,250819,15.2,E,D*1F
$GPRMC,214559.00,A,4716.79378,N,12224.01537,W,0.11,25.97,250819,15.2,E,D*25
$GPRMC,214600.00,A,4716.79378,N,12224.01537,W,0.12,226.77,250819,15.2,E,D*16
$GPRMC,214601.00,A,4716.79378,N,12224.01537,W,0.14,59.51,250819,15.2,E,D*2F
$GPRMC,214602.00,A,4716.79379,N,12224.01536,W,0.07,94.49,250819,15.2,E,D*26
$GPRMC,214603.00,A,4716.79379,N,12224.01535,W,0.20,352.65,250819,15.2,E,D*16
$GPRMC,214604.00,A,4716.79379,N,12224.01535,W,0.11,159.72,250819,15.2,E,D*1C
$GPRMC,214605.00,A,4716.79379,N,12224.01535,W,0.18,334.73,250819,15.2,E,D*1C
$GPRMC,214606.00,A,4716.79379,N,12224.01535,W,0.14,163.49,250819,15.2,E,D*1A
$GPRMC,214607.00,A,4716.79379,N,12224.01535,W,0.08,33.71,250819,15.2,E,D*29
$GPRMC,214608.00,A,4716.79379,N,12224.01535,W,0.14,279.28,250819,15.2,E,D*1B
$GPRMC,214609.00,A,4716.79379,N,12224.01535,W,0.09,119.61,250819,15.2,E,D*1E
$GPRMC,214610.00,A,4716.79379,N,12224.01535,W,0.04,111.95,250819,15.2,E,D*18
$GPRMC,214611.00,A,4716.79379,N,12224.01535,W,0.01,336.15,250819,15.2,E,D*13
$GPRMC,214612.00,A,4716.79379,N,12224.01534,W,0.08,292.58,250819,15.2,E,D*1E
$GPRMC,214613.00,A,4716.79379,N,12224.01534,W,0.12,144.76,250819,15.2,E,D*10
$GPRMC,214614.00,A,4716.79379,N,12224.01535,W,0.17,290.94,250819,15.2,E,D*15
$GPRMC,214615.00,A,4716.79380,N,12224.01535,W,0.22,329.79,250819,15.2,E,D*14
$GPRMC,214616.00,A,4716.79380,N,12224.01535,W,0.11,68.64,250819,15.2,E,D*2D
$GPRMC,214617.00,A,4716.79380,N,12224.01534,W,0.11,230.32,250819,15.2,E,D*11
$GPRMC,214618.00,A,4716.79380,N,12224.01534,W,0.04,266.41,250819,15.2,E,D*1D
$GPRMC,214619.00,A,4716.79380,N,12224.01533,W,0.19,295.46,250819,15.2,E,D*1C
$GPRMC,214620.00,A,4716.79379,N,12224.01533,W,0.09,274.31,250819,15.2,E,D*1E
$GPRMC,214621.00,A,4716.79379,N,12224.01533,W,0.02,258.66,250819,15.2,E,D*18
$GPRMC,214622.00,A,4716.79379,N,12224.01533,W,0.07,102.28,250819,15.2,E,D*18
$GPRMC,214623.00,A,4716.79378,N,12224.01532,W,0.11,153.94,250819,15.2,E,D*1D
$GPRMC,214624.00,A,4716.79378,N,12224.01532,W,0.03,228.82,250819,15.2,E,D*11
$GPRMC,214625.00,A,4716.79378,N,12224.01531,W,0.04,84.85,250819,15.2,E,D*27
$GPRMC,214626.00,A,4716.79378,N,12224.01531,W,0.12,340.85,250819,15.2,E,D*18
$GPRMC,214627.00,A,4716.79378,N,12224.01531,W,0.10,4.12,250819,15.2,E,D*16
$GPRMC,214628.00,A,4716.79378,N,12224.01531,W,0.10,298.29,250819,15.2,E,D*16
$GPRMC,214629.00,A,4716.79378,N,12224.01533,W,0.04,236.88,250819,15.2,E,D*1F
$GPRMC,214630.00,A,4716.79378,N,12224.01533,W,0.11,108.30,250819,15.2,E,D*1E
$GPRMC,214631.00,A,4716.79379,N,12224.01531,W,0.06,51.77,250819,15.2,E,D*24
$GPRMC,214632.00,A,4716.79379,N,12224.01531,W,0.00,37.28,250819,15.2,E,D*2B
$GPRMC,214633.00,A,4716.79379,N,12224.01532,W,0.14,131.57,250819,15.2,E,D*13
$GPRMC,214634.00,A,4716.79379,N,12224.01532,W,0.11,45.32,250819,15.2,E,D*20
$GPRMC,214635.00,A,4716.79379,N,12224.01531,W,0.16,341.00,250819,15.2,E,D*13
$GPRMC,214636.00,A,4716.79379,N,12224.01532,W,0.01,344.47,250819,15.2,E,D*13
$GPRMC,214637.00,A,4716.79379,N,12224.01532,W,0.03,345.55,250819,15.2,E,D*12
$GPRMC,214638.00,A,4716.79379,N,12224.01530,W,0.06,283.88,250819,15.2,E,D*11
$GPRMC,214639.00,A,4716.79379,N,12224.01531,W,0.14,306.89,250819,15.2,E,D*1F
$GPRMC,214640.00,A,4716.79380,N,12224.01531,W,0.13,103.28,250819,15.2,E,D*1C
$GPRMC,214641.00,A,4716.79380,N,12224.01531,W,0.04,262.65,250819,15.2,E,D*16
$GPRMC,214642.00,A,4716.79381,N,12224.01530,W,0.03,184.51,250819,15.2,E,D*1E
$GPRMC,214643.00,A,4716.79381,N,12224.01531,W,0.06,295.17,250819,15.2,E,D*1A
$GPRMC,214644.00,A,4716.79382,N,12224.01531,W,0.17,330.89,250819,15.2,E,D*17
$GPRMC,214645.00,A,4716.79381,N,12224.01530,W,0.03,239.65,250819,15.2,E,D*1B
$GPRMC,214646.00,A,4716.79381,N,12224.01531,W,0.06,138.42,250819,15.2,E,D*1B
$GPRMC,214647.00,A,4716.79382,N,12224.01529,W,0.04,331.79,250819,15.2,E,D*11
$GPRMC,214648.00,A,4716.79383,N,12224.01530,W,0.17,286.75,250819,15.2,E,D*14
$GPRMC,214649.00,A,4716.79383,N,12224.01530,W,0.09,121.52,250819,15.2,E,D*11
$GPRMC,214650.00,A,4716.79383,N,12224.01529,W,0.03,292.49,250819,15.2,E,D*1A
$GPRMC,214651.00,A,4716.79383,N,12224.01529,W,0.08,136.79,250819,15.2,E,D*1E
$GPRMC,214652.00,A,4716.79383,N,12224.01529,W,0.04,60.23,250819,15.2,E,D*2C
$GPRMC,214653.00,A,4716.79383,N,12224.01528,W,0.03,261.11,250819,15.2,E,D*19
$GPRMC,214654.00,A,4716.79383,N,12224.01529,W,0.15,122.92,250819,15.2,E,D*17
$GPRMC,214655.00,A,4716.79383,N,12224.01528,W,0.05,278.16,250819,15.2,E,D*16
$GPRMC,214656.00,A,4716.79383,N,12224.01528,W,0.09,155.46,250819,15.2,E,D*10
$GPRMC,214657.00,A,4716.79383,N,12224.01529,W,0.06,310.51,250819,15.2,E,D*1A
$GPRMC,214658.00,A,4716.79383,N,12224.01529,W,0.16,128.36,250819,15.2,E,D*1C
$GPRMC,214659.00,A,4716.79383,N,12224.01528,W,0.03,43.51,250819,15.2,E,D*25
$GPRMC,214700.00,A,4716.79383,N,12224.01528,W,0.12,340.49,250819,15.2,E,D*11
$GPRMC,214701.00,A,4716.79384,N,12224.01528,W,0.08,13.55,250819,15.2,E,D*24
$GPRMC,214702.00,A,4716.79384,N,12224.01527,W,0.10,71.32,250819,15.2,E,D*24
$GPRMC,214703.00,A,4716.79385,N,12224.01527,W,0.12,47.79,250819,15.2,E,D*2C
$GPRMC,214704.00,A,4716.79385,N,12224.01527,W,0.10,259.00,250819,15.2,E,D*1A
$GPRMC,214705.00,A,4716.79385,N,12224.01526,W,0.15,308.95,250819,15.2,E,D*16
$GPRMC,214706.00,A,4716.79386,N,12224.01526,W,0.07,312.91,250819,15.2,E,D*1A
$GPRMC,214707.00,A,4716.79386,N,12224.01526,W,0.11,327.40,250819,15.2,E,D*16
$GPRMC,214708.00,A,4716.79386,N,12224.01525,W,0.19,336.62,250819,15.2,E,D*12
$GPRMC,214709.00,A,4716.79386,N,12224.01525,W,0.06,261.24,250819,15.2,E,D*1C
$GPRMC,214710.00,A,4716.79387,N,12224.01526,W,0.05,57.08,250819,15.2,E,D*2C
$GPRMC,214711.00,A,4716.79387,N,12224.01525,W,0.12,42.12,250819,15.2,E,D*27
$GPRMC,214712.00,A,4716.79388,N,12224.01525,W,0.13,305.64,250819,15.2,E,D*1B
$GPRMC,214713.00,A,4716.79387,N,12224.01525,W,0.05,123.25,250819,15.2,E,D*11
$GPRMC,214714.00,A,4716.79387,N,12224.01524,W,0.04,110.71,250819,15.2,E,D*17
$GPRMC,214715.00,A,4716.79387,N,12224.01524,W,0.18,356.59,250819,15.2,E,D*11
$GPRMC,214716.00,A,4716.79387,N,12224.01524,W,0.08,231.12,250819,15.2,E,D*1C
$GPRMC,214717.00,A,4716.79386,N,12224.01524,W,0.10,53.76,250819,15.2,E,D*21
$GPRMC,214718.00,A,4716.79387,N,12224.01523,W,0.10,211.10,250819,15.2,E,D*1C
$GPRMC,214719.00,A,4716.79387,N,12224.01523,W,0.22,163.11,250819,15.2,E,D*1B
$GPRMC,214720.00,A,4716.79387,N,12224.01523,W,0.02,346.79,250819,15.2,E,D*18
$GPRMC,214721.00,A,4716.79387,N,12224.01522,W,0.07,141.34,250819,15.2,E,D*11
$GPRMC,214722.00,A,4716.79388,N,12224.01523,W,0.10,121.88,250819,15.2,E,D*1B
$GPRMC,214723.00,A,4716.79388,N,12224.01522,W,0.12,154.94,250819,15.2,E,D*16
$GPRMC,214724.00,A,4716.79387,N,12224.01522,W,0.19,23.44,250819,15.2,E,D*29
$GPRMC,214725.00,A,4716.79388,N,12224.01523,W,0.04,347.89,250819,15.2,E,D*1A
$GPRMC,214726.00,A,4716.79387,N,12224.01522,W,0.15,141.52,250819,15.2,E,D*15
$GPRMC,214727.00,A,4716.79387,N,12224.01521,W,0.17,89.06,250819,15.2,E,D*21
$GPRMC,214728.00,A,4716.79388,N,12224.01521,W,0.06,314.08,250819,15.2,E,D*18
$GPRMC,214729.00,A,4716.79387,N,12224.01521,W,0.12,130.19,250819,15.2,E,D*17
$GPRMC,214730.00,A,4716.79388,N,12224.01521,W,0.15,340.75,250819,15.2,E,D*18
$GPRMC,214731.00,A,4716.79388,N,12224.01520,W,0.06,259.94,250819,15.2,E,D*1C
$GPRMC,214732.00,A,4716.79388,N,12224.01520,W,0.08,184.26,250819,15.2,E,D*1B
$GPRMC,214733.00,A,4716.79388,N,12224.01520,W,0.12,94.02,250819,15.2,E,D*27
$GPRMC,214734.00,A,4716.79389,N,12224.01519,W,0.14,102.22,250819,15.2,E,D*11
$GPRMC,214735.00,A,4716.79389,N,12224.01518,W,0.07,271.15,250819,15.2,E,D*10
$GPRMC,214736.00,A,4716.79389,N,12224.01519,W,0.04,323.86,250819,15.2,E,D*1D
$GPRMC,214737.00,A,4716.79389,N,12224.01518,W,0.06,229.66,250819,15.2,E,D*1A
$GPRMC,214738.00,A,4716.79389,N,12224.01518,W,0.14,239.56,250819,15.2,E,D*14
$GPRMC,214739.00,A,4716.79389,N,12224.01518,W,0.01,20.27,250819,15.2,E,D*2D
$GPRMC,214740.00,A,4716.79389,N,12224.01517,W,0.08,61.91,250819,15.2,E,D*2D
$GPRMC,214741.00,A,4716.79390,N,12224.01517,W,0.03,237.60,250819,15.2,E,D*10
$GPRMC,214742.00,A,4716.79389,N,12224.01518,W,0.10,40.44,250819,15.2,E,D*22
$GPRMC,214743.00,A,4716.79389,N,12224.01518,W,0.13,120.03,250819,15.2,E,D*14
$GPRMC,214744.00,A,4716.79389,N,12224.01519,W,0.03,247.67,250819,15.2,E,D*13
$GPRMC,214745.00,A,4716.79388,N,12224.01520,W,0.14,154.70,250819,15.2,E,D*18
$GPRMC,214746.00,A,4716.79388,N,12224.01518,W,0.09,6.91,250819,15.2,E,D*15
$GPRMC,214747.00,A,4716.79389,N,12224.01517,W,0.06,126.33,250819,15.2,E,D*1E
$GPRMC,214748.00,A,4716.79388,N,12224.01518,W,0.01,320.77,250819,15.2,E,D*1C
$GPRMC,214749.00,A,4716.79388,N,12224.01518,W,0.06,28.00,250819,15.2,E,D*21
$GPRMC,214750.00,A,4716.79388,N,12224.01517,W,0.24,8.90,250819,15.2,E,D*1D
$GPRMC,214751.00,A,4716.79388,N,12224.01517,W,0.16,284.00,250819,15.2,E,D*12
$GPRMC,214752.00,A,4716.79388,N,12224.01518,W,0.02,98.46,250819,15.2,E,D*26
$GPRMC,214753.00,A,4716.79388,N,12224.01517,W,0.00,5.21,250819,15.2,E,D*1F
$GPRMC,214754.00,A,4716.79388,N,12224.01515,W,0.12,353.44,250819,15.2,E,D*1A
$GPRMC,214755.00,A,4716.79389,N,12224.01514,W,0.07,18.65,250819,15.2,E,D*20
$GPRMC,214756.00,A,4716.79388,N,12224.01516,W,0.15,240.52,250819,15.2,E,D*18
$GPRMC,214757.00,A,4716.79387,N,12224.01517,W,0.05,199.45,250819,15.2,E,D*17
$GPRMC,214758.00,A,4716.79387,N,12224.01517,W,0.09,262.95,250819,15.2,E,D*1E
$GPRMC,214759.00,A,4716.79387,N,12224.01517,W,0.10,260.01,250819,15.2,E,D*18
$GPRMC,214800.00,A,4716.79388,N,12224.01517,W,0.12,90.81,250819,15.2,E,D*23
$GPRMC,214801.00,A,4716.79388,N,12224.01516,W,0.11,121.90,250819,15.2,E,D*1B
$GPRMC,214802.00,A,4716.79388,N,12224.01514,W,0.12,37.98,250819,15.2,E,D*27
$GPRMC,214803.00,A,4716.79388,N,12224.01512,W,0.11,6.62,250819,15.2,E,D*14
$GPRMC,214804.00,A,4716.79387,N,12224.01512,W,0.14,347.33,250819,15.2,E,D*1B
$GPRMC,214805.00,A,4716.79387,N,12224.01511,W,0.13,328.10,250819,15.2,E,D*16
$GPRMC,214806.00,A,4716.79388,N,12224.01511,W,0.04,207.86,250819,15.2,E,D*1F
$GPRMC,214807.00,A,4716.79387,N,12224.01512,W,0.09,217.64,250819,15.2,E,D*12
$GPRMC,214808.00,A,4716.79387,N,12224.01512,W,0.11,339.78,250819,15.2,E,D*14
$GPRMC,214809.00,A,4716.79387,N,12224.01512,W,0.06,23.28,250819,15.2,E,D*2E
$GPRMC,214810.00,A,4716.79387,N,12224.01511,W,0.14,63.58,250819,15.2,E,D*25
$GPRMC,214811.00,A,4716.79387,N,12224.01510,W,0.07,346.75,250819,15.2,E,D*1C
$GPRMC,214812.00,A,4716.79387,N,12224.01509,W,0.20,318.24,250819,15.2,E,D*1D
$GPRMC,214813.00,A,4716.79387,N,12224.01509,W,0.09,171.87,250819,15.2,E,D*13
$GPRMC,214814.00,A,4716.79386,N,12224.01508,W,0.08,310.86,250819,15.2,E,D*11
$GPRMC,214815.00,A,4716.79386,N,12224.01508,W,0.03,16.69,250819,15.2,E,D*2F
$GPRMC,214816.00,A,4716.79386,N,12224.01508,W,0.08,74.95,250819,15.2,E,D*20
$GPRMC,214817.00,A,4716.79385,N,12224.01508,W,0.14,349.64,250819,15.2,E,D*1C
$GPRMC,214818.00,A,4716.79386,N,12224.01507,W,0.06,303.71,250819,15.2,E,D*16
$GPRMC,214819.00,A,4716.79386,N,12224.01507,W,0.06,344.73,250819,15.2,E,D*16
$GPRMC,214820.00,A,4716.79386,N,12224.01506,W,0.03,123.61,250819,15.2,E,D*18
$GPRMC,214821.00,A,4716.79386,N,12224.01506,W,0.09,19.46,250819,15.2,E,D*2E
$GPRMC,214822.00,A,4716.79385,N,12224.01506,W,0.13,228.23,250819,15.2,E,D*16
$GPRMC,214823.00,A,4716.79385,N,12224.01509,W,0.06,219.85,250819,15.2,E,D*12
$GPRMC,214824.00,A,4716.79384,N,12224.01508,W,0.04,270.87,250819,15.2,E,D*1A
$GPRMC,214825.00,A,4716.79386,N,12224.01506,W,0.06,88.57,250819,15.2,E,D*2D
$GPRMC,214826.00,A,4716.79385,N,12224.01507,W,0.03,262.17,250819,15.2,E,D*1B
$GPRMC,214827.00,A,4716.79385,N,12224.01507,W,0.06,205.94,250819,15.2,E,D*15
$GPRMC,214828.00,A,4716.79385,N,12224.01505,W,0.17,26.16,250819,15.2,E,D*21
$GPRMC,214829.00,A,4716.79385,N,12224.01504,W,0.06,274.49,250819,15.2,E,D*1E
$GPRMC,214830.00,A,4716.79384,N,12224.01506,W,0.07,179.52,250819,15.2,E,D*10
$GPRMC,214831.00,A,4716.79384,N,12224.01506,W,0.18,59.81,250819,15.2,E,D*22
$GPRMC,214832.00,A,4716.79384,N,12224.01506,W,0.17,32.79,250819,15.2,E,D*24
$GPRMC,214833.00,A,4716.79384,N,12224.01507,W,0.06,158.30,250819,15.2,E,D*14
$GPRMC,214834.00,A,4716.79384,N,12224.01507,W,0.10,158.02,250819,15.2,E,D*15
$GPRMC,214835.00,A,4716.79384,N,12224.01507,W,0.06,7.01,250819,15.2,E,D*1B
$GPRMC,214836.00,A,4716.79384,N,12224.01505,W,0.09,102.44,250819,15.2,E,D*10
$GPRMC,214837.00,A,4716.79384,N,12224.01504,W,0.09,334.63,250819,15.2,E,D*12
$GPRMC,214838.00,A,4716.79383,N,12224.01504,W,0.07,358.42,250819,15.2,E,D*1D
$GPRMC,214839.00,A,4716.79383,N,12224.01503,W,0.08,190.03,250819,15.2,E,D*17
$GPRMC,214840.00,A,4716.79383,N,12224.01503,W,0.09,328.97,250819,15.2,E,D*14
$GPRMC,214841.00,A,4716.79383,N,12224.01504,W,0.13,178.52,250819,15.2,E,D*17
$GPRMC,214842.00,A,4716.79383,N,12224.01505,W,0.08,297.97,250819,15.2,E,D*14
$GPRMC,214843.00,A,4716.79383,N,12224.01506,W,0.15,14.68,250819,15.2,E,D*23
$GPRMC,214844.00,A,4716.79383,N,12224.01505,W,0.08,53.99,250819,15.2,E,D*26
$GPRMC,214845.00,A,4716.79384,N,12224.01502,W,0.12,27.92,250819,15.2,E,D*24
$GPRMC,214846.00,A,4716.79384,N,12224.01501,W,0.06,32.95,250819,15.2,E,D*22
$GPRMC,214847.00,A,4716.79384,N,12224.01502,W,0.06,148.66,250819,15.2,E,D*10
$GPRMC,214848.00,A,4716.79384,N,12224.01502,W,0.07,258.18,250819,15.2,E,D*15
$GPRMC,214849.00,A,4716.79384,N,12224.01501,W,0.24,353.81,250819,15.2,E,D*1C
$GPRMC,214850.00,A,4716.79384,N,12224.01502,W,0.17,353.13,250819,15.2,E,D*1C
$GPRMC,214851.00,A,4716.79384,N,12224.01502,W,0.05,263.80,250819,15.2,E,D*16
$GPRMC,214852.00,A,4716.79384,N,12224.01501,W,0.10,233.98,250819,15.2,E,D*1E
$GPRMC,214853.00,A,4716.79384,N,12224.01502,W,0.03,349.24,250819,15.2,E,D*15
$GPRMC,214854.00,A,4716.79384,N,12224.01501,W,0.04,22.78,250819,15.2,E,D*21
$GPRMC,214855.00,A,4716.79384,N,12224.01501,W,0.18,324.22,250819,15.2,E,D*17
$GPRMC,214856.00,A,4716.79384,N,12224.01502,W,0.02,340.12,250819,15.2,E,D*1D
$GPRMC,214857.00,A,4716.79384,N,12224.01501,W,0.06,43.24,250819,15.2,E,D*2E
$GPRMC,214858.00,A,4716.79384,N,12224.01501,W,0.09,352.24,250819,15.2,E,D*1D
$GPRMC,214859.00,A,4716.79384,N,12224.01501,W,0.09,164.00,250819,15.2,E,D*1D
$GPRMC,214900.00,A,4716.79384,N,12224.01502,W,0.12,31.78,250819,15.2,E,D*27
$GPRMC,214901.00,A,4716.79384,N,12224.01501,W,0.03,312.42,250819,15.2,E,D*1E
$GPRMC,214902.00,A,4716.79384,N,12224.01502,W,0.07,157.78,250819,15.2,E,D*10
$GPRMC,214903.00,A,4716.79384,N,12224.01502,W,0.06,206.39,250819,15.2,E,D*12
$GPRMC,214904.00,A,4716.79384,N,12224.01501,W,0.16,261.58,250819,15.2,E,D*11
$GPRMC,214905.00,A,4716.79384,N,12224.01501,W,0.13,240.60,250819,15.2,E,D*1D
$GPRMC,214906.00,A,4716.79384,N,12224.01502,W,0.05,318.36,250819,15.2,E,D*15
$GPRMC,214907.00,A,4716.79384,N,12224.01501,W,0.17,5.57,250819,15.2,E,D*1C
$GPRMC,214908.00,A,4716.79384,N,12224.01502,W,0.28,158.70,250819,15.2,E,D*10
$GPRMC,214909.00,A,4716.79384,N,12224.01502,W,0.12,276.90,250819,15.2,E,D*19
$GPRMC,214910.00,A,4716.79383,N,12224.01503,W,0.08,329.58,250819,15.2,E,D*13
$GPRMC,214911.00,A,4716.79384,N,12224.01502,W,0.17,135.99,250819,15.2,E,D*18
$GPRMC,214912.00,A,4716.79384,N,12224.01501,W,0.11,183.73,250819,15.2,E,D*17
$GPRMC,214913.00,A,4716.79384,N,12224.01502,W,0.17,267.78,250819,15.2,E,D*11
$GPRMC,214914.00,A,4716.79383,N,12224.01504,W,0.10,326.45,250819,15.2,E,D*1A
$GPRMC,214915.00,A,4716.79383,N,12224.01505,W,0.22,76.78,250819,15.2,E,D*23
$GPRMC,214916.00,A,4716.79385,N,12224.01501,W,0.13,284.89,250819,15.2,E,D*11
$GPRMC,214917.00,A,4716.79385,N,12224.01502,W,0.08,253.84,250819,15.2,E,D*1E
$GPRMC,214918.00,A,4716.79384,N,12224.01501,W,0.11,348.62,250819,15.2,E,D*18
$GPRMC,214919.00,A,4716.79385,N,12224.01501,W,0.10,104.56,250819,15.2,E,D*14
$GPRMC,214920.00,A,4716.79385,N,12224.01501,W,0.08,293.97,250819,15.2,E,D*17
$GPRMC,214921.00,A,4716.79384,N,12224.01502,W,0.12,265.81,250819,15.2,E,D*11
$GPRMC,214922.00,A,4716.79384,N,12224.01502,W,0.08,40.78,250819,15.2,E,D*2A
$GPRMC,214923.00,A,4716.79385,N,12224.01502,W,0.19,121.77,250819,15.2,E,D*13
$GPRMC,214924.00,A,4716.79385,N,12224.01502,W,0.08,324.30,250819,15.2,E,D*10
$GPRMC,214925.00,A,4716.79385,N,12224.01502,W,0.06,36.32,250819,15.2,E,D*2D
$GPRMC,214926.00,A,4716.79385,N,12224.01502,W,0.01,110.04,250819,15.2,E,D*19
$GPRMC,214927.00,A,4716.79384,N,12224.01502,W,0.21,335.57,250819,15.2,E,D*18
$GPRMC,214928.00,A,4716.79383,N,12224.01502,W,0.16,0.78,250819,15.2,E,D*1C
$GPRMC,214929.00,A,4716.79384,N,12224.01502,W,0.08,17.56,250819,15.2,E,D*2F
$GPRMC,214930.00,A,4716.79384,N,12224.01502,W,0.12,328.19,250819,15.2,E,D*18
$GPRMC,214931.00,A,4716.79384,N,12224.01502,W,0.06,328.27,250819,15.2,E,D*11
$GPRMC,214932.00,A,4716.79384,N,12224.01502,W,0.03,321.72,250819,15.2,E,D*1E
$GPRMC,214933.00,A,4716.79384,N,12224.01502,W,0.03,65.90,250819,15.2,E,D*20
$GPRMC,214934.00,A,4716.79384,N,12224.01502,W,0.14,11.85,250819,15.2,E,D*26
$GPRMC,214935.00,A,4716.79384,N,12224.01501,W,0.09,224.80,250819,15.2,E,D*19
$GPRMC,214936.00,A,4716.79384,N,12224.01501,W,0.08,311.25,250819,15.2,E,D*13
$GPRMC,214937.00,A,4716.79384,N,12224.01501,W,0.16,359.59,250819,15.2,E,D*1A
$GPRMC,214938.00,A,4716.79385,N,12224.01501,W,0.21,129.46,250819,15.2,E,D*1B
$GPRMC,214939.00,A,4716.79385,N,12224.01500,W,0.04,204.86,250819,15.2,E,D*1C
$GPRMC,214940.00,A,4716.79386,N,12224.01500,W,0.16,76.97,250819,15.2,E,D*25
$GPRMC,214941.00,A,4716.79386,N,12224.01500,W,0.16,27.16,250819,15.2,E,D*29
$GPRMC,214942.00,A,4716.79387,N,12224.01500,W,0.12,181.90,250819,15.2,E,D*1C
$GPRMC,214943.00,A,4716.79386,N,12224.01500,W,0.15,306.91,250819,15.2,E,D*17
$GPRMC,214944.00,A,4716.79387,N,12224.01501,W,0.13,315.79,250819,15.2,E,D*12
$GPRMC,214945.00,A,4716.79386,N,12224.01501,W,0.17,93.84,250819,15.2,E,D*29
$GPRMC,214946.00,A,4716.79387,N,12224.01501,W,0.17,30.36,250819,15.2,E,D*2B
$GPRMC,214947.00,A,4716.79387,N,12224.01501,W,0.05,349.16,250819,15.2,E,D*16
$GPRMC,214948.00,A,4716.79387,N,12224.01501,W,0.13,43.77,250819,15.2,E,D*20
$GPRMC,214949.00,A,4716.79386,N,12224.01501,W,0.07,148.71,250819,15.2,E,D*19
$GPRMC,214950.00,A,4716.79387,N,12224.01501,W,0.01,289.71,250819,15.2,E,D*18
$GPRMC,214951.00,A,4716.79387,N,12224.01501,W,0.14,276.99,250819,15.2,E,D*1B
$GPRMC,214952.00,A,4716.79387,N,12224.01501,W,0.12,211.31,250819,15.2,E,D*1D
$GPRMC,214953.00,A,4716.79387,N,12224.01501,W,0.08,193.14,250819,15.2,E,D*19
$GPRMC,214954.00,A,4716.79387,N,12224.01501,W,0.07,357.56,250819,15.2,E,D*1D
$GPRMC,214955.00,A,4716.79386,N,12224.01502,W,0.05,258.59,250819,15.2,E,D*1D
$GPRMC,214956.00,A,4716.79386,N,12224.01503,W,0.24,10.79,250819,15.2,E,D*20
$GPRMC,214957.00,A,4716.79386,N,12224.01503,W,0.06,92.27,250819,15.2,E,D*20
$GPRMC,214958.00,A,4716.79387,N,12224.01502,W,0.10,286.43,250819,15.2,E,D*1D
$GPRMC,214959.00,A,4716.79387,N,12224.01502,W,0.15,3.59,250819,15.2,E,D*1D
$GPRMC,215000.00,A,4716.79387,N,12224.01502,W,0.15,116.47,250819,15.2,E,D*13
$GPRMC,215001.00,A,4716.79388,N,12224.01501,W,0.11,271.94,250819,15.2,E,D*16
$GPRMC,215002.00,A,4716.79388,N,12224.01501,W,0.10,333.35,250819,15.2,E,D*18
$GPRMC,215003.00,A,4716.79389,N,12224.01502,W,0.10,148.68,250819,15.2,E,D*1D
$GPRMC,215004.00,A,4716.79390,N,12224.01501,W,0.12,311.41,250819,15.2,E,D*16
$GPRMC,215005.00,A,4716.79390,N,12224.01501,W,0.14,259.58,250819,15.2,E,D*14
$GPRMC,215006.00,A,4716.79389,N,12224.01502,W,0.13,206.28,250819,15.2,E,D*16
$GPRMC,215007.00,A,4716.79389,N,12224.01501,W,0.03,118.26,250819,15.2,E,D*17
$GPRMC,215008.00,A,4716.79390,N,12224.01501,W,0.07,320.49,250819,15.2,E,D*14
$GPRMC,215009.00,A,4716.79389,N,12224.01502,W,0.09,44.03,250819,15.2,E,D*2F
$GPRMC,215010.00,A,4716.79389,N,12224.01501,W,0.10,339.86,250819,15.2,E,D*18
$GPRMC,215011.00,A,4716.79389,N,12224.01501,W,0.13,98.26,250819,15.2,E,D*28
$GPRMC,215012.00,A,4716.79389,N,12224.01501,W,0.03,154.89,250819,15.2,E,D*1E
$GPRMC,215013.00,A,4716.79389,N,12224.01502,W,0.18,152.32,250819,15.2,E,D*10
$GPRMC,215014.00,A,4716.79389,N,12224.01501,W,0.16,8.49,250819,15.2,E,D*18
$GPRMC,215015.00,A,4716.79389,N,12224.01501,W,0.17,286.18,250819,15.2,E,D*18
$GPRMC,215016.00,A,4716.79388,N,12224.01503,W,0.04,136.79,250819,15.2,E,D*15
$GPRMC,215017.00,A,4716.79388,N,12224.01503,W,0.08,120.79,250819,15.2,E,D*1F
$GPRMC,215018.00,A,4716.79388,N,12224.01502,W,0.06,254.85,250819,15.2,E,D*1C
$GPRMC,215019.00,A,4716.79388,N,12224.01502,W,0.14,77.30,250819,15.2,E,D*23
$GPRMC,215020.00,A,4716.79388,N,12224.01501,W,0.03,204.94,250819,15.2,E,D*14
$GPRMC,215021.00,A,4716.79389,N,12224.01501,W,0.06,274.81,250819,15.2,E,D*12
$GPRMC,215022.00,A,4716.79389,N,12224.01501,W,0.07,230.03,250819,15.2,E,D*1A
$GPRMC,215023.00,A,4716.79389,N,12224.01501,W,0.01,301.02,250819,15.2,E,D*1F
$GPRMC,215024.00,A,4716.79388,N,12224.01503,W,0.22,253.01,250819,15.2,E,D*1F
$GPRMC,215025.00,A,4716.79387,N,12224.01505,W,0.17,15.93,250819,15.2,E,D*2A
$GPRMC,215026.00,A,4716.79388,N,12224.01503,W,0.12,98.87,250819,15.2,E,D*25
$GPRMC,215027.00,A,4716.79388,N,12224.01502,W,0.04,145.59,250819,15.2,E,D*10
$GPRMC,215028.00,A,4716.79388,N,12224.01503,W,0.12,225.33,250819,15.2,E,D*10
$GPRMC,215029.00,A,4716.79388,N,12224.01503,W,0.08,103.10,250819,15.2,E,D*1C
$GPRMC,215030.00,A,4716.79388,N,12224.01502,W,0.07,147.11,250819,15.2,E,D*1B
$GPRMC,215031.00,A,4716.79388,N,12224.01502,W,0.08,178.80,250819,15.2,E,D*11
$GPRMC,215032.00,A,4716.79388,N,12224.01503,W,0.19,222.27,250819,15.2,E,D*12
$GPRMC,215033.00,A,4716.79387,N,12224.01503,W,0.08,64.24,250819,15.2,E,D*2F
$GPRMC,215034.00,A,4716.79387,N,12224.01503,W,0.05,328.61,250819,15.2,E,D*1F
$GPRMC,215035.00,A,4716.79388,N,12224.01503,W,0.06,91.47,250819,15.2,E,D*27
$GPRMC,215036.00,A,4716.79388,N,12224.01503,W,0.03,352.58,250819,15.2,E,D*13
$GPRMC,215037.00,A,4716.79388,N,12224.01502,W,0.08,277.53,250819,15.2,E,D*15
$GPRMC,215038.00,A,4716.79388,N,12224.01503,W,0.10,307.98,250819,15.2,E,D*13
$GPRMC,215039.00,A,4716.79388,N,12224.01503,W,0.28,344.02,250819,15.2,E,D*1D
$GPRMC,215040.00,A,4716.79388,N,12224.01503,W,0.12,149.51,250819,15.2,E,D*13
$GPRMC,215041.00,A,4716.79388,N,12224.01503,W,0.12,258.01,250819,15.2,E,D*14
$GPRMC,215042.00,A,4716.79388,N,12224.01503,W,0.06,238.94,250819,15.2,E,D*18
$GPRMC,215043.00,A,4716.79388,N,12224.01503,W,0.11,304.24,250819,15.2,E,D*1A
$GPRMC,215044.00,A,4716.79388,N,12224.01502,W,0.15,125.93,250819,15.2,E,D*15
$GPRMC,215045.00,A,4716.79388,N,12224.01503,W,0.18,245.73,250819,15.2,E,D*13
$GPRMC,215046.00,A,4716.79388,N,12224.01504,W,0.05,92.92,250819,15.2,E,D*2C
$GPRMC,215047.00,A,4716.79387,N,12224.01505,W,0.04,156.15,250819,15.2,E,D*14
$GPRMC,215048.00,A,4716.79387,N,12224.01505,W,0.10,281.21,250819,15.2,E,D*10
$GPRMC,215049.00,A,4716.79387,N,12224.01504,W,0.20,344.91,250819,15.2,E,D*10
$GPRMC,215050.00,A,4716.79388,N,12224.01504,W,0.16,58.27,250819,15.2,E,D*21
$GPRMC,215051.00,A,4716.79388,N,12224.01505,W,0.15,45.39,250819,15.2,E,D*21
$GPRMC,215052.00,A,4716.79388,N,12224.01505,W,0.13,43.32,250819,15.2,E,D*29
$GPRMC,215053.00,A,4716.79388,N,12224.01505,W,0.04,349.44,250819,15.2,E,D*16
$GPRMC,215054.00,A,4716.79388,N,12224.01505,W,0.07,147.25,250819,15.2,E,D*19
$GPRMC,215055.00,A,4716.79388,N,12224.01505,W,0.11,274.30,250819,15.2,E,D*18
$GPRMC,215056.00,A,4716.79389,N,12224.01504,W,0.08,14.81,250819,15.2,E,D*2D
$GPRMC,215057.00,A,4716.79389,N,12224.01505,W,0.20,327.65,250819,15.2,E,D*1E
$GPRMC,215058.00,A,4716.79389,N,12224.01505,W,0.14,277.41,250819,15.2,E,D*14
$GPRMC,215059.00,A,4716.79388,N,12224.01507,W,0.14,202.58,250819,15.2,E,D*1C
$GPRMC,215100.00,A,4716.79388,N,12224.01508,W,0.10,175.14,250819,15.2,E,D*11
$GPRMC,215101.00,A,4716.79388,N,12224.01507,W,0.15,164.36,250819,15.2,E,D*1A
$GPRMC,215102.00,A,4716.79389,N,12224.01505,W,0.05,176.09,250819,15.2,E,D*14
$GPRMC,215103.00,A,4716.79389,N,12224.01505,W,0.07,104.44,250819,15.2,E,D*1B
$GPRMC,215104.00,A,4716.79388,N,12224.01506,W,0.15,316.13,250819,15.2,E,D*1E
$GPRMC,215105.00,A,4716.79389,N,12224.01506,W,0.14,171.12,250819,15.2,E,D*1D
$GPRMC,215106.00,A,4716.79389,N,12224.01506,W,0.08,207.32,250819,15.2,E,D*13
$GPRMC,215107.00,A,4716.79389,N,12224.01507,W,0.13,147.67,250819,15.2,E,D*1E
$GPRMC,215108.00,A,4716.79389,N,12224.01506,W,0.09,331.07,250819,15.2,E,D*1E
$GPRMC,215109.00,A,4716.79389,N,12224.01506,W,0.05,204.21,250819,15.2,E,D*10
$GPRMC,215110.00,A,4716.79388,N,12224.01507,W,0.07,241.00,250819,15.2,E,D*18
$GPRMC,215111.00,A,4716.79388,N,12224.01508,W,0.05,331.29,250819,15.2,E,D*19
$GPRMC,215112.00,A,4716.79388,N,12224.01507,W,0.09,102.57,250819,15.2,E,D*12
$GPRMC,215113.00,A,4716.79389,N,12224.01506,W,0.05,317.42,250819,15.2,E,D*1D
$GPRMC,215114.00,A,4716.79389,N,12224.01508,W,0.08,318.21,250819,15.2,E,D*13
$GPRMC,215115.00,A,4716.79388,N,12224.01508,W,0.04,47.64,250819,15.2,E,D*27
$GPRMC,215116.00,A,4716.79388,N,12224.01506,W,0.12,169.88,250819,15.2,E,D*12
$GPRMC,215117.00,A,4716.79389,N,12224.01505,W,0.11,352.35,250819,15.2,E,D*1E
$GPRMC,215118.00,A,4716.79388,N,12224.01506,W,0.06,68.65,250819,15.2,E,D*2A
$GPRMC,215119.00,A,4716.79388,N,12224.01508,W,0.15,317.50,250819,15.2,E,D*1A
$GPRMC,215120.00,A,4716.79387,N,12224.01508,W,0.10,37.75,250819,15.2,E,D*2C
$GPRMC,215121.00,A,4716.79387,N,12224.01507,W,0.02,147.99,250819,15.2,E,D*15
$GPRMC,215122.00,A,4716.79387,N,12224.01508,W,0.05,303.33,250819,15.2,E,D*1C
$GPRMC,215123.00,A,4716.79386,N,12224.01508,W,0.05,321.39,250819,15.2,E,D*16
$GPRMC,215124.00,A,4716.79387,N,12224.01507,W,0.08,11.03,250819,15.2,E,D*2B
$GPRMC,215125.00,A,4716.79388,N,12224.01507,W,0.03,98.91,250819,15.2,E,D*24
$GPRMC,215126.00,A,4716.79388,N,12224.01506,W,0.12,336.90,250819,15.2,E,D*10
$GPRMC,215127.00,A,4716.79388,N,12224.01506,W,0.02,51.63,250819,15.2,E,D*2E
$GPRMC,215128.00,A,4716.79388,N,12224.01506,W,0.05,154.70,250819,15.2,E,D*10
$GPRMC,215129.00,A,4716.79388,N,12224.01506,W,0.19,343.91,250819,15.2,E,D*17
$GPRMC,215130.00,A,4716.79388,N,12224.01507,W,0.05,199.20,250819,15.2,E,D*1C
$GPRMC,215131.00,A,4716.79388,N,12224.01508,W,0.09,342.87,250819,15.2,E,D*17
$GPRMC,215132.00,A,4716.79387,N,12224.01509,W,0.11,9.64,250819,15.2,E,D*12
$GPRMC,215133.00,A,4716.79387,N,12224.01509,W,0.11,130.28,250819,15.2,E,D*10
$GPRMC,215134.00,A,4716.79387,N,12224.01508,W,0.08,208.88,250819,15.2,E,D*1C
$GPRMC,215135.00,A,4716.79387,N,12224.01509,W,0.07,147.83,250819,15.2,E,D*10
$GPRMC,215136.00,A,4716.79387,N,12224.01508,W,0.06,296.83,250819,15.2,E,D*1C
$GPRMC,215137.00,A,4716.79388,N,12224.01507,W,0.02,213.10,250819,15.2,E,D*1E
$GPRMC,215138.00,A,4716.79387,N,12224.01507,W,0.09,9.95,250819,15.2,E,D*11
$GPRMC,215139.00,A,4716.79387,N,12224.01507,W,0.01,85.22,250819,15.2,E,D*20
$GPRMC,215140.00,A,4716.79387,N,12224.01507,W,0.08,63.02,250819,15.2,E,D*2D
$GPRMC,215141.00,A,4716.79387,N,12224.01507,W,0.06,357.12,250819,15.2,E,D*17
$GPRMC,215142.00,A,4716.79387,N,12224.01509,W,0.09,238.22,250819,15.2,E,D*1E
$GPRMC,215143.00,A,4716.79386,N,12224.01510,W,0.09,77.03,250819,15.2,E,D*2C
$GPRMC,215144.00,A,4716.79386,N,12224.01510,W,0.08,1.80,250819,15.2,E,D*10
$GPRMC,215145.00,A,4716.79387,N,12224.01509,W,0.01,136.10,250819,15.2,E,D*1D
$GPRMC,215146.00,A,4716.79386,N,12224.01509,W,0.18,237.13,250819,15.2,E,D*16
$GPRMC,215147.00,A,4716.79386,N,12224.01510,W,0.18,338.60,250819,15.2,E,D*15
$GPRMC,215148.00,A,4716.79386,N,12224.01509,W,0.05,15.12,250819,15.2,E,D*27
$GPRMC,215149.00,A,4716.79386,N,12224.01508,W,0.05,35.37,250819,15.2,E,D*22
$GPRMC,215150.00,A,4716.79386,N,12224.01508,W,0.19,354.86,250819,15.2,E,D*19
$GPRMC,215151.00,A,4716.79386,N,12224.01509,W,0.15,29.56,250819,15.2,E,D*21
$GPRMC,215152.00,A,4716.79386,N,12224.01508,W,0.10,123.63,250819,15.2,E,D*1B
$GPRMC,215153.00,A,4716.79386,N,12224.01507,W,0.08,255.72,250819,15.2,E,D*1E
$GPRMC,215154.00,A,4716.79386,N,12224.01508,W,0.12,209.42,250819,15.2,E,D*17
$GPRMC,215155.00,A,4716.79385,N,12224.01509,W,0.17,173.74,250819,15.2,E,D*1A
$GPRMC,215156.00,A,4716.79385,N,12224.01509,W,0.03,53.06,250819,15.2,E,D*2A
$GPRMC,215157.00,A,4716.79385,N,12224.01510,W,0.06,133.28,250819,15.2,E,D*1D
$GPRMC,215158.00,A,4716.79384,N,12224.01510,W,0.06,223.31,250819,15.2,E,D*19
$GPRMC,215159.00,A,4716.79384,N,12224.01511,W,0.14,310.18,250819,15.2,E,D*10
$GPRMC,215200.00,A,4716.79384,N,12224.01511,W,0.06,188.69,250819,15.2,E,D*19
$GPRMC,215201.00,A,4716.79384,N,12224.01510,W,0.12,254.72,250819,15.2,E,D*14
$GPRMC,215202.00,A,4716.79383,N,12224.01510,W,0.12,201.36,250819,15.2,E,D*10
$GPRMC,215203.00,A,4716.79383,N,12224.01510,W,0.14,87.65,250819,15.2,E,D*2D
$GPRMC,215204.00,A,4716.79383,N,12224.01508,W,0.06,309.97,250819,15.2,E,D*18
$GPRMC,215205.00,A,4716.79384,N,12224.01507,W,0.09,157.23,250819,15.2,E,D*18
$GPRMC,215206.00,A,4716.79384,N,12224.01508,W,0.11,183.36,250819,15.2,E,D*10
$GPRMC,215207.00,A,4716.79383,N,12224.01509,W,0.05,291.82,250819,15.2,E,D*1D
$GPRMC,215208.00,A,4716.79383,N,12224.01508,W,0.06,294.49,250819,15.2,E,D*12
$GPRMC,215209.00,A,4716.79383,N,12224.01507,W,0.16,48.97,250819,15.2,E,D*2D
$GPRMC,215210.00,A,4716.79384,N,12224.01507,W,0.08,289.43,250819,15.2,E,D*1B
$GPRMC,215211.00,A,4716.79383,N,12224.01508,W,0.08,178.77,250819,15.2,E,D*18
$GPRMC,215212.00,A,4716.79383,N,12224.01509,W,0.02,254.41,250819,15.2,E,D*18
$GPRMC,215213.00,A,4716.79383,N,12224.01509,W,0.17,110.81,250819,15.2,E,D*12
$GPRMC,215214.00,A,4716.79384,N,12224.01508,W,0.12,298.54,250819,15.2,E,D*1D
$GPRMC,215215.00,A,4716.79383,N,12224.01508,W,0.13,269.14,250819,15.2,E,D*10
$GPRMC,215216.00,A,4716.79383,N,12224.01508,W,0.16,138.49,250819,15.2,E,D*19
$GPRMC,215217.00,A,4716.79384,N,12224.01505,W,0.15,12.89,250819,15.2,E,D*24
$GPRMC,215218.00,A,4716.79384,N,12224.01507,W,0.10,164.46,250819,15.2,E,D*1F
$GPRMC,215219.00,A,4716.79383,N,12224.01509,W,0.15,161.87,250819,15.2,E,D*1A
$GPRMC,215220.00,A,4716.79383,N,12224.01509,W,0.20,171.18,250819,15.2,E,D*11
$GPRMC,215221.00,A,4716.79383,N,12224.01509,W,0.12,254.11,250819,15.2,E,D*1C
$GPRMC,215222.00,A,4716.79383,N,12224.01511,W,0.19,238.78,250819,15.2,E,D*18
$GPRMC,215223.00,A,4716.79382,N,12224.01511,W,0.09,227.74,250819,15.2,E,D*1B
$GPRMC,215224.00,A,4716.79383,N,12224.01509,W,0.02,50.09,250819,15.2,E,D*27
$GPRMC,215225.00,A,4716.79383,N,12224.01508,W,0.07,261.02,250819,15.2,E,D*19
$GPRMC,215226.00,A,4716.79383,N,12224.01507,W,0.15,296.10,250819,15.2,E,D*1D
$GPRMC,215227.00,A,4716.79383,N,12224.01507,W,0.03,334.31,250819,15.2,E,D*11
$GPRMC,215228.00,A,4716.79383,N,12224.01506,W,0.11,24.37,250819,15.2,E,D*28
$GPRMC,215229.00,A,4716.79383,N,12224.01506,W,0.05,85.19,250819,15.2,E,D*2B
$GPRMC,215230.00,A,4716.79383,N,12224.01506,W,0.02,4.15,250819,15.2,E,D*11